"srno","id","name","url","address","locality","city","city_id","latitude","longitude","locality_verbose","cuisines","average_cost_for_two","price_range","currency","aggregate_rating","rating_text","rating_color","votes","has_fake_reviews","has_online_delivery","is_table_reservation_supported","has_table_booking"
"1","2400052","Eat On","https://www.zomato.com/allahabad/eat-on-civil-lines?utm_source=api_basic_user&utm_medium=api&utm_campaign=v2.1","19/35, Palace Compound, Near Palace Cinema, MG Marg, Civil Lines, Allahabad","Civil Lines","Allahabad","24","25.4504428014","81.8317518756","Civil Lines, Allahabad","North Indian","200","1","Rs.","4.9","Excellent","3F7E00","2001","0","1","0","0"
"2","2400394","Well Bean Cafe","https://www.zomato.com/allahabad/well-bean-cafe-civil-lines?utm_source=api_basic_user&utm_medium=api&utm_campaign=v2.1","207/53, MG Marg, Above Subway ,Civil Lines, Allahabad","Civil Lines","Allahabad","24","25.4501312815","81.8338825554","Civil Lines, Allahabad","Cafe","500","3","Rs.","4.4","Very Good","5BA829","275","0","1","0","0"
"3","2400269","Hot n Cool","https://www.zomato.com/allahabad/hot-n-cool-colonel-ganj?utm_source=api_basic_user&utm_medium=api&utm_campaign=v2.1","194, Opposite Anand Bhawan, Colonel Ganj, Allahabad","Colonel Ganj","Allahabad","24","25.4599708640","81.8593699113","Colonel Ganj, Allahabad","Desserts, Fast Food, Ice Cream","450","2","Rs.","4.3","Very Good","5BA829","218","0","1","0","0"
"4","2400403","Pind Balluchi","https://www.zomato.com/allahabad/pind-balluchi-civil-lines?utm_source=api_basic_user&utm_medium=api&utm_campaign=v2.1","48/8 Stratchy Road, Civil Lines, Allahabad","Civil Lines","Allahabad","24","25.4523627633","81.8328136951","Civil Lines, Allahabad","North Indian, Mughlai","1000","4","Rs.","4.3","Very Good","5BA829","302","0","1","0","0"
"5","2400018","El Chico Restaurant","https://www.zomato.com/allahabad/el-chico-restaurant-civil-lines?utm_source=api_basic_user&utm_medium=api&utm_campaign=v2.1","142A, 32, Mahatma Gandhi, Civil Lines, Allahabad","Civil Lines","Allahabad","24","25.4505387699","81.8336277455","Civil Lines, Allahabad","Continental, North Indian, Chinese","800","3","Rs.","4.4","Very Good","5BA829","503","0","1","0","0"
"6","2400020","Aryan Family's Delight","https://www.zomato.com/allahabad/aryan-familys-delight-civil-lines?utm_source=api_basic_user&utm_medium=api&utm_campaign=v2.1","Ground Floor, Vinayak City Centre, Sardar Patel Marg, Civil Lines, Allahabad","Civil Lines","Allahabad","24","25.4545369879","81.8348850310","Civil Lines, Allahabad","North Indian, South Indian, Fast Food","500","3","Rs.","4.3","Very Good","5BA829","291","0","1","0","0"
"7","2400565","Old School Cafe","https://www.zomato.com/allahabad/old-school-cafe-civil-lines?utm_source=api_basic_user&utm_medium=api&utm_campaign=v2.1","33/2/A, Stretchy Road, Civil Lines, Allahabad","Civil Lines","Allahabad","24","25.4546577770","81.8336213753","Civil Lines, Allahabad","Cafe, North Indian, Continental, Chinese, Indian, Thai, Burger","1000","4","Rs.","4.4","Very Good","5BA829","358","0","1","0","0"
"8","2400739","Barbeque Nation","https://www.zomato.com/allahabad/barbeque-nation-2-civil-lines?utm_source=api_basic_user&utm_medium=api&utm_campaign=v2.1","Fifth Floor, P Square Mall, MG Road, Civil Lines, Allahabad","Civil Lines","Allahabad","24","25.4494530000","81.8395360000","Civil Lines, Allahabad","North Indian, Mediterranean","1200","4","Rs.","4.6","Excellent","3F7E00","240","0","0","1","1"
"9","2400009","Sagar Ratna","https://www.zomato.com/allahabad/sagar-ratna-tagore-town?utm_source=api_basic_user&utm_medium=api&utm_campaign=v2.1","3/3, Hashimpur Road, Balson Crossing, Near Anand Bhawan, Tagore Town, Allahabad","Tagore Town","Allahabad","24","25.4572654601","81.8600317463","Tagore Town, Allahabad","South Indian, North Indian, Chinese, Continental","600","3","Rs.","4.4","Very Good","5BA829","591","0","0","0","0"
"10","2400006","Allahabad Biryani Centre","https://www.zomato.com/allahabad/allahabad-biryani-centre-civil-lines?utm_source=api_basic_user&utm_medium=api&utm_campaign=v2.1","7/E, Shankar Tower, Clive Road, Near Jwala Devi Inter collage, Civil Lines, Allahabad. Opp. Samsung mobile service centre.","Civil Lines","Allahabad","24","25.4549446106","81.8309326172","Civil Lines, Allahabad","Biryani, Mughlai","400","2","Rs.","3.8","Good","9ACD32","151","0","1","0","0"
"11","2400193","Mr. Dewsis","https://www.zomato.com/allahabad/mr-dewsis-civil-lines?utm_source=api_basic_user&utm_medium=api&utm_campaign=v2.1","Serial 2, Tashkand Marg Civil Lines, Allahabad","Civil Lines","Allahabad","24","25.4555053711","81.8337936401","Civil Lines, Allahabad","North Indian, Chinese","600","3","Rs.","4.2","Very Good","5BA829","456","0","1","0","0"
"12","2400119","KFC","https://www.zomato.com/allahabad/kfc-civil-lines?utm_source=api_basic_user&utm_medium=api&utm_campaign=v2.1","P Square Mall, Civil Lines, Allahabad","Civil Lines","Allahabad","24","25.4495348806","81.8396013603","Civil Lines, Allahabad","Burger, Fast Food","600","3","Rs.","4.2","Very Good","5BA829","410","0","1","0","0"
"13","2400358","Domino's Pizza","https://www.zomato.com/allahabad/dominos-pizza-1-civil-lines?utm_source=api_basic_user&utm_medium=api&utm_campaign=v2.1","3/31, Sardar Patel Marg, Civil Lines, Allahabad","Civil Lines","Allahabad","24","25.4546100000","81.8355100000","Civil Lines, Allahabad","Pizza, Fast Food","700","3","Rs.","3.7","Good","9ACD32","499","0","0","0","0"
"14","18889008","EDEN by Connoisseur","https://www.zomato.com/allahabad/eden-by-connoisseur-civil-lines?utm_source=api_basic_user&utm_medium=api&utm_campaign=v2.1","Hotel Samrat, Civil Lines, Allahabad","Civil Lines","Allahabad","24","25.4498680000","81.8336210000","Civil Lines, Allahabad","North Indian, Chinese, Continental","1000","4","Rs.","4.2","Very Good","5BA829","89","0","0","0","0"
"15","2400019","Bikanerwala","https://www.zomato.com/allahabad/bikanerwala-civil-lines?utm_source=api_basic_user&utm_medium=api&utm_campaign=v2.1","2A, JMD Bhawan, Strachey Road, Civil Lines, Allahabad","Civil Lines","Allahabad","24","25.4513358811","81.8326148763","Civil Lines, Allahabad","North Indian, Street Food, Fast Food","500","3","Rs.","4.2","Very Good","5BA829","216","0","1","0","0"
"16","18799013","Nainital Momos","https://www.zomato.com/allahabad/nainital-momos-10-civil-lines?utm_source=api_basic_user&utm_medium=api&utm_campaign=v2.1","45A/89C/2, Thornill Road, Civil Lines, Allahabad","Civil Lines","Allahabad","24","25.4597619897","81.8386418000","Civil Lines, Allahabad","Momos, Beverages","400","2","Rs.","4.1","Very Good","5BA829","118","0","1","0","0"
"17","2400510","Cafe BigBoxx","https://www.zomato.com/allahabad/cafe-bigboxx-civil-lines?utm_source=api_basic_user&utm_medium=api&utm_campaign=v2.1","Orchard One Hotel \nNear Big Bazaar, \nCivil Lines,\nAllahabad","Civil Lines","Allahabad","24","25.4517463929","81.8374706805","Civil Lines, Allahabad","Indian, Continental","600","3","Rs.","4.2","Very Good","5BA829","124","0","1","0","0"
"18","2400349","Pizza Hut","https://www.zomato.com/allahabad/pizza-hut-civil-lines?utm_source=api_basic_user&utm_medium=api&utm_campaign=v2.1","31/31, Sardar Patel Marg, Civil Lines, Allahabad","Civil Lines","Allahabad","24","25.4558653587","81.8354020268","Civil Lines, Allahabad","Italian, Pizza","700","3","Rs.","4.0","Very Good","5BA829","543","0","1","0","0"
"19","18708164","BrewBakes","https://www.zomato.com/allahabad/brewbakes-civil-lines?utm_source=api_basic_user&utm_medium=api&utm_campaign=v2.1","45/A/1A/4, Dayanand Marg, Near Dhobi Petrol Pump Chauraha, Civil Lines, Allahabad","Civil Lines","Allahabad","24","25.4597093170","81.8388701230","Civil Lines, Allahabad","Cafe","500","3","Rs.","3.8","Good","9ACD32","85","0","1","0","0"
"20","2400293","Paradise","https://www.zomato.com/allahabad/paradise-civil-lines?utm_source=api_basic_user&utm_medium=api&utm_campaign=v2.1","19/35, MG Marg, Civil Lines, Allahabad","Civil Lines","Allahabad","24","25.4501830501","81.8317683041","Civil Lines, Allahabad","Desserts, Fast Food","500","3","Rs.","4.5","Excellent","3F7E00","202","0","1","0","0"
"21","2400014","McDonald's","https://www.zomato.com/allahabad/mcdonalds-civil-lines?utm_source=api_basic_user&utm_medium=api&utm_campaign=v2.1","Shop 4, 34-B, M G Marg, Civil Lines, Allahabad","Civil Lines","Allahabad","24","25.4505045603","81.8362633511","Civil Lines, Allahabad","Burger, Fast Food","500","3","Rs.","4.3","Very Good","5BA829","492","0","0","0","0"
"22","2400713","Shree Kanha Sweets & Restaurant","https://www.zomato.com/allahabad/shree-kanha-sweets-restaurant-george-town?utm_source=api_basic_user&utm_medium=api&utm_campaign=v2.1","Lowther Road, George Town, Allahabad","George Town","Allahabad","24","25.4490299054","81.8545027077","George Town, Allahabad","Mithai, North Indian, Street Food","500","3","Rs.","4.1","Very Good","5BA829","61","0","1","0","0"
"23","18708091","Raju Kitchen Restaurant","https://www.zomato.com/allahabad/raju-kitchen-restaurant-civil-lines?utm_source=api_basic_user&utm_medium=api&utm_campaign=v2.1","Tandon Road, Civil Lines, Allahabad","Civil Lines","Allahabad","24","25.4562404361","81.8309160322","Civil Lines, Allahabad","North Indian, Chinese","400","2","Rs.","3.9","Good","9ACD32","147","0","1","0","0"
"24","2400195","Cafe El Chico","https://www.zomato.com/allahabad/cafe-el-chico-civil-lines?utm_source=api_basic_user&utm_medium=api&utm_campaign=v2.1","142A, 32, Mahatma Gandhi, Civil Lines, Allahabad","Civil Lines","Allahabad","24","25.4499432793","81.8362127244","Civil Lines, Allahabad","Cafe, Italian, Continental","1000","4","Rs.","4.3","Very Good","5BA829","222","0","1","0","0"
"25","2400390","Haldiram Bhujiawala","https://www.zomato.com/allahabad/haldiram-bhujiawala-civil-lines?utm_source=api_basic_user&utm_medium=api&utm_campaign=v2.1","25, Tashkent Marg, Civil Lines, Allahabad","Civil Lines","Allahabad","24","25.4556116737","81.8342027441","Civil Lines, Allahabad","North Indian, Fast Food, Street Food, South Indian, Chinese","700","3","Rs.","4.1","Very Good","5BA829","301","0","0","0","0"
"26","2400356","Domino's Pizza","https://www.zomato.com/allahabad/dominos-pizza-civil-lines?utm_source=api_basic_user&utm_medium=api&utm_campaign=v2.1","Ground Floor, Vinayak City Centre, Sardar Patel Marg, Civil Lines, Allahabad","Civil Lines","Allahabad","24","25.4546356500","81.8345421700","Civil Lines, Allahabad","Pizza, Fast Food","700","3","Rs.","3.9","Good","9ACD32","506","0","0","0","0"
"27","2400005","Kamdhenu","https://www.zomato.com/allahabad/kamdhenu-1-civil-lines?utm_source=api_basic_user&utm_medium=api&utm_campaign=v2.1","Elgin Road, Civil Lines, Allahabad","Civil Lines","Allahabad","24","25.4532250000","81.8329060000","Civil Lines, Allahabad","Mithai","400","2","Rs.","4.1","Very Good","5BA829","149","0","1","0","0"
"28","2400194","El Chico Pastry Shop","https://www.zomato.com/allahabad/el-chico-pastry-shop-civil-lines?utm_source=api_basic_user&utm_medium=api&utm_campaign=v2.1","24, Mahatma Gandhi Marg, Civil Lines, Allahabad","Civil Lines","Allahabad","24","25.4505757042","81.8337035179","Civil Lines, Allahabad","Desserts","300","2","Rs.","4.3","Very Good","5BA829","77","0","1","0","0"
"29","18707628","Baba Biryani","https://www.zomato.com/allahabad/baba-biryani-1-civil-lines?utm_source=api_basic_user&utm_medium=api&utm_campaign=v2.1","26, Tashkent Marg, Madhopur, Allahabad","Civil Lines","Allahabad","24","25.4554270100","81.8360980600","Civil Lines, Allahabad","Biryani, Mughlai","500","3","Rs.","2.5","Average","FFBA00","153","0","1","0","0"
"30","18892185","The London Shakes And Cafe","https://www.zomato.com/allahabad/the-london-shakes-and-cafe-civil-lines?utm_source=api_basic_user&utm_medium=api&utm_campaign=v2.1","Shop 11, Tulsiani Grace Mall, Civil Lines, Allahabad","Civil Lines","Allahabad","24","25.4542580000","81.8333300000","Civil Lines, Allahabad","Pizza, Fast Food, Beverages","300","2","Rs.","3.9","Good","9ACD32","51","0","1","0","0"
"31","2400250","Paradise Confectioner","https://www.zomato.com/allahabad/paradise-confectioner-tagore-town?utm_source=api_basic_user&utm_medium=api&utm_campaign=v2.1","3/3 Hashimpur Road, Tagore Town, Allahabad","Tagore Town","Allahabad","24","25.4572808989","81.8600495160","Tagore Town, Allahabad","Fast Food, Desserts","500","3","Rs.","4.3","Very Good","5BA829","144","0","1","0","0"
"32","2400053","Gay Time Family Restaurant","https://www.zomato.com/allahabad/gay-time-family-restaurant-civil-lines?utm_source=api_basic_user&utm_medium=api&utm_campaign=v2.1","Shop 1-3, Elgin Road, Civil Lines, Allahabad","Civil Lines","Allahabad","24","25.4528970898","81.8366070092","Civil Lines, Allahabad","North Indian, South Indian, Chinese, Fast Food","500","3","Rs.","3.7","Good","9ACD32","139","0","1","0","0"
"33","2400016","Hot Stuff","https://www.zomato.com/allahabad/hot-stuff-civil-lines?utm_source=api_basic_user&utm_medium=api&utm_campaign=v2.1","21 C, Lal Bhadhur Shastri Marg, Civil Lines, Allahabad","Civil Lines","Allahabad","24","25.4526318946","81.8347324803","Civil Lines, Allahabad","North Indian, Fast Food","500","3","Rs.","4.1","Very Good","5BA829","271","0","0","0","0"
"34","2400017","Tandoor Restaurant","https://www.zomato.com/allahabad/tandoor-restaurant-civil-lines?utm_source=api_basic_user&utm_medium=api&utm_campaign=v2.1","17/33, Mahatama Gandhi Marg, Civil Lines, Allahabad","Civil Lines","Allahabad","24","25.4505127343","81.8313559145","Civil Lines, Allahabad","North Indian, Chinese","500","3","Rs.","2.7","Average","FFBA00","335","0","1","0","0"
"35","2400144","The Tamarind Tree","https://www.zomato.com/allahabad/the-tamarind-tree-civil-lines?utm_source=api_basic_user&utm_medium=api&utm_campaign=v2.1","60 C, Thornhill Road, Civil Lines, Allahabad","Civil Lines","Allahabad","24","25.4597453403","81.8349437043","Civil Lines, Allahabad","South Indian, Chinese","500","3","Rs.","4.0","Very Good","5BA829","245","0","1","0","0"
"36","18707809","Handi","https://www.zomato.com/allahabad/handi-george-town?utm_source=api_basic_user&utm_medium=api&utm_campaign=v2.1","32 Nomani House, George Town, Allahabad","George Town","Allahabad","24","25.4511737823","81.8571472168","George Town, Allahabad","North Indian","300","2","Rs.","3.7","Good","9ACD32","51","0","1","0","0"
"37","18930442","Andeywala","https://www.zomato.com/allahabad/andeywala-civil-lines?utm_source=api_basic_user&utm_medium=api&utm_campaign=v2.1","Shop 15, Tulsiani Grace Mall, Civil Lines, Allahabad","Civil Lines","Allahabad","24","25.4546670000","81.8338890000","Civil Lines, Allahabad","Fast Food","200","1","Rs.","3.8","Good","9ACD32","47","0","1","0","0"
"38","2400533","SCORE - The Games Cafe","https://www.zomato.com/allahabad/score-the-games-cafe-1-civil-lines?utm_source=api_basic_user&utm_medium=api&utm_campaign=v2.1","138 C/30, M.G. Marg Civil Lines, Behind Bank of Baroda, Near Subhash Crossing, Civil Lines, Allahabad","Civil Lines","Allahabad","24","25.4511560548","81.8330980092","Civil Lines, Allahabad","Cafe, Desserts, Beverages","200","1","Rs.","4.5","Excellent","3F7E00","326","0","1","0","0"
"39","2400074","Shamiana's","https://www.zomato.com/allahabad/shamianas-civil-lines?utm_source=api_basic_user&utm_medium=api&utm_campaign=v2.1","Manorama Complex, MG Marg, Civil Lines, Allahabad","Civil Lines","Allahabad","24","25.4502841655","81.8329588696","Civil Lines, Allahabad","North Indian","300","2","Rs.","3.6","Good","9ACD32","105","0","1","0","0"
"40","2400081","Chhappan Bhog","https://www.zomato.com/allahabad/chhappan-bhog-katra?utm_source=api_basic_user&utm_medium=api&utm_campaign=v2.1","17/2, Kutchery Road, Katra, Allahabad","Katra","Allahabad","24","25.4647321908","81.8487413228","Katra, Allahabad","North Indian, South Indian, Chinese","600","3","Rs.","3.6","Good","9ACD32","110","0","1","0","0"
"41","2400010","Moti Mahal Delux","https://www.zomato.com/allahabad/moti-mahal-delux-civil-lines?utm_source=api_basic_user&utm_medium=api&utm_campaign=v2.1","Second Floor, Vinayak City Center Mall, SP Marg, Civil Lines, Allahabad","Vinayak City Centre Mall, Civil Lines","Allahabad","24","25.4546205413","81.8346456438","Vinayak City Centre Mall, Civil Lines, Allahabad","Mughlai, North Indian, Chinese","600","3","Rs.","4.0","Very Good","5BA829","149","0","1","0","0"
"42","2400087","Allahabad Kabab Paratha","https://www.zomato.com/allahabad/allahabad-kabab-paratha-kareli?utm_source=api_basic_user&utm_medium=api&utm_campaign=v2.1","5A, Shaukat Ali Road, Atala, Allahabad, Kareli, Allahabad","Kareli","Allahabad","24","25.4312066773","81.8261336535","Kareli, Allahabad","Mughlai","600","3","Rs.","3.9","Good","9ACD32","37","0","1","0","0"
"43","2400443","9280 The Family Restaurant","https://www.zomato.com/allahabad/9280-the-family-restaurant-civil-lines?utm_source=api_basic_user&utm_medium=api&utm_campaign=v2.1","10/14, Elgin Road, Civil Lines, Allahabad, Uttar Pradesh, India","Civil Lines","Allahabad","24","25.4528062696","81.8408754095","Civil Lines, Allahabad","North Indian","600","3","Rs.","3.9","Good","9ACD32","142","0","1","0","0"
"44","2400459","Chicago Pizza","https://www.zomato.com/allahabad/chicago-pizza-civil-lines?utm_source=api_basic_user&utm_medium=api&utm_campaign=v2.1","Vinayak City Square, Sardar Patel Marg, Parade Ground, Civil Lines, Allahabad","Civil Lines","Allahabad","24","25.4520000860","81.8350791559","Civil Lines, Allahabad","Pizza, Beverages","400","2","Rs.","4.1","Very Good","5BA829","333","0","1","0","0"
"45","2400279","Subway","https://www.zomato.com/allahabad/subway-civil-lines?utm_source=api_basic_user&utm_medium=api&utm_campaign=v2.1","207/53, Mahatma Gandhi Marg, Civil Lines, Allahabad","Civil Lines","Allahabad","24","25.4501915269","81.8339630216","Civil Lines, Allahabad","Healthy Food, Salad, Fast Food","500","3","Rs.","4.0","Very Good","5BA829","175","0","1","0","0"
"46","2400505","Coffee Calling","https://www.zomato.com/allahabad/coffee-calling-civil-lines?utm_source=api_basic_user&utm_medium=api&utm_campaign=v2.1","Vinayak Central Plaza, Behind Big Bazar, Civil Lines, Allahabad","Civil Lines","Allahabad","24","25.4512453625","81.8367478251","Civil Lines, Allahabad","Cafe","400","2","Rs.","3.9","Good","9ACD32","106","0","1","0","0"
"47","18901221","7th Heaven","https://www.zomato.com/allahabad/7th-heaven-civil-lines?utm_source=api_basic_user&utm_medium=api&utm_campaign=v2.1","128B/24/6A, Mahatma Gandhi Marg, Civil Lines, Allahabad","Civil Lines","Allahabad","24","25.4509577611","81.8311906233","Civil Lines, Allahabad","Bakery, Italian, Continental, Desserts","200","1","Rs.","4.0","Very Good","5BA829","75","0","1","0","0"
"48","2400455","Malt","https://www.zomato.com/allahabad/malt-ashok-nagar?utm_source=api_basic_user&utm_medium=api&utm_campaign=v2.1","Om Sharda Complex, Opposite Akash Puri Colony, Ashok Nagar, Allahabad","Ashok Nagar","Allahabad","24","25.4677207511","81.8226799741","Ashok Nagar, Allahabad","Cafe, Beverages, Bakery","300","2","Rs.","4.7","Excellent","3F7E00","292","0","1","0","0"
"49","2400289","Indian Coffee House","https://www.zomato.com/allahabad/indian-coffee-house-civil-lines?utm_source=api_basic_user&utm_medium=api&utm_campaign=v2.1","15, MG Marg, Civil Lines, Allahabad","Civil Lines","Allahabad","24","25.4505142480","81.8298401311","Civil Lines, Allahabad","South Indian, Cafe","200","1","Rs.","3.9","Good","9ACD32","113","0","0","0","0"
"50","2400310","Old Town","https://www.zomato.com/allahabad/old-town-civil-lines?utm_source=api_basic_user&utm_medium=api&utm_campaign=v2.1","60 H/2, Thornhill Road \nCivil lines Allahabad., Civil Lines, Allahabad","Civil Lines","Allahabad","24","25.4597068953","81.8351602927","Civil Lines, Allahabad","North Indian, Chinese","500","3","Rs.","3.5","Good","9ACD32","86","0","1","0","0"
"51","2400148","Bean Here","https://www.zomato.com/allahabad/bean-here-civil-lines?utm_source=api_basic_user&utm_medium=api&utm_campaign=v2.1","Vinayak Pushp, 77 Elgin Road, Near Florista, Civil Lines, Allahabad","Civil Lines","Allahabad","24","25.4531053705","81.8328210711","Civil Lines, Allahabad","Cafe, Fast Food","350","2","Rs.","3.9","Good","9ACD32","172","0","1","0","0"
"52","2400595","The Second Wife","https://www.zomato.com/allahabad/the-second-wife-george-town?utm_source=api_basic_user&utm_medium=api&utm_campaign=v2.1","0/18/1B, Lowther Road, George Town, George Town, Allahabad","George Town","Allahabad","24","25.4491945978","81.8542311341","George Town, Allahabad","North Indian","500","3","Rs.","2.7","Average","FFBA00","99","0","1","0","0"
"53","2400032","Celebrations","https://www.zomato.com/allahabad/celebrations-civil-lines?utm_source=api_basic_user&utm_medium=api&utm_campaign=v2.1","3D/1, Near Prithvi Garden, Cooper Road, Civil Lines, Allahabad","Civil Lines","Allahabad","24","25.4540165944","81.8370539323","Civil Lines, Allahabad","North Indian, Chinese, Continental","600","3","Rs.","3.8","Good","9ACD32","143","0","1","0","0"
"54","18811619","Kailash Parbat","https://www.zomato.com/allahabad/kailash-parbat-civil-lines?utm_source=api_basic_user&utm_medium=api&utm_campaign=v2.1","46/3, Sardar Patel Marg, Civil Lines, Allahabad (Opposite World of Titan & Above Puma Store)","Civil Lines","Allahabad","24","25.4519153199","81.8349494040","Civil Lines, Allahabad","North Indian, South Indian, Chinese, Continental","400","2","Rs.","3.8","Good","9ACD32","29","0","1","0","0"
"55","18812187","Prayag Food Plaza","https://www.zomato.com/allahabad/prayag-food-plaza-george-town?utm_source=api_basic_user&utm_medium=api&utm_campaign=v2.1","143/21-B, Madan Mohan Malviya Road, George Town, Allahabad","George Town","Allahabad","24","25.4507637054","81.8609202281","George Town, Allahabad","Chinese","300","2","Rs.","4.0","Very Good","5BA829","65","0","1","0","0"
"56","18783480","Khana Khazana Restaurant & Cafe","https://www.zomato.com/allahabad/khana-khazana-restaurant-cafe-civil-lines?utm_source=api_basic_user&utm_medium=api&utm_campaign=v2.1","Plot 25, Near Javed Habib, Tashkand Marg, Civil Lines, Allahabad","Civil Lines","Allahabad","24","25.4555702209","81.8336334229","Civil Lines, Allahabad","North Indian, Chinese, Mughlai","450","2","Rs.","3.8","Good","9ACD32","50","0","1","0","0"
"57","18789245","Makkhan's","https://www.zomato.com/allahabad/makkhans-civil-lines?utm_source=api_basic_user&utm_medium=api&utm_campaign=v2.1","8, 9 Tulsiani Grace, 25 Edmonston Road, Civil Lines, Allahabad","Civil Lines","Allahabad","24","25.4546070099","81.8334579468","Civil Lines, Allahabad","North Indian","1000","4","Rs.","4.0","Very Good","5BA829","74","0","1","0","0"
"58","2400045","Dosa Plaza","https://www.zomato.com/allahabad/dosa-plaza-civil-lines?utm_source=api_basic_user&utm_medium=api&utm_campaign=v2.1","9, Under Ground , VV Tower, Tashkand Marg, Civil Lines, Allahabad","Civil Lines","Allahabad","24","25.4530181833","81.8327841908","Civil Lines, Allahabad","South Indian","400","2","Rs.","4.1","Very Good","5BA829","169","0","0","0","0"
"59","2400105","Kamdhenu Sweets","https://www.zomato.com/allahabad/kamdhenu-sweets-civil-lines?utm_source=api_basic_user&utm_medium=api&utm_campaign=v2.1","37, MG Marg, Civil Lines, Allahabad","Civil Lines","Allahabad","24","25.4504264534","81.8321894109","Civil Lines, Allahabad","Desserts","400","2","Rs.","4.2","Very Good","5BA829","125","0","1","0","0"
"60","2400048","Hotel Kanha Shyam","https://www.zomato.com/allahabad/hotel-kanha-shyam-civil-lines?utm_source=api_basic_user&utm_medium=api&utm_campaign=v2.1","Allahabad HO, Civil Lines, Allahabad","Civil Lines","Allahabad","24","25.4575657608","81.8356263265","Civil Lines, Allahabad","North Indian, Chinese","900","3","Rs.","3.8","Good","9ACD32","107","0","0","0","0"
"61","2400532","Maharani Zaika","https://www.zomato.com/allahabad/maharani-zaika-1-george-town?utm_source=api_basic_user&utm_medium=api&utm_campaign=v2.1","257A/12, M.G. Marg, Near Medical Chauraha, Georgetown, Allahabad","George Town","Allahabad","24","25.4463608884","81.8517769128","George Town, Allahabad","North Indian","500","3","Rs.","3.7","Good","9ACD32","91","0","1","0","0"
"62","2400633","Keventers","https://www.zomato.com/allahabad/keventers-civil-lines?utm_source=api_basic_user&utm_medium=api&utm_campaign=v2.1","202/45, MG Marg, Civil Lines, Allahabad","Civil Lines","Allahabad","24","25.4502693312","81.8335325271","Civil Lines, Allahabad","Beverages, Ice Cream, Desserts","400","2","Rs.","4.1","Very Good","5BA829","79","0","1","0","0"
"63","18981545","Allahabadi Kabab Paratha","https://www.zomato.com/allahabad/allahabadi-kabab-paratha-chowk?utm_source=api_basic_user&utm_medium=api&utm_campaign=v2.1","59, Garhi Sarai, Chowk, Allahabad","Chowk","Allahabad","24","25.4389496000","81.8296594000","Chowk, Allahabad","North Indian","150","1","Rs.","3.2","Average","CDD614","7","0","1","0","0"
"64","2400591","Barcode","https://www.zomato.com/allahabad/barcode-3-civil-lines?utm_source=api_basic_user&utm_medium=api&utm_campaign=v2.1","22/B, Sardar Patel Marg, Civil Lines, Allahabad, Uttar Pradesh 211001, India","Civil Lines","Allahabad","24","25.4548379009","81.8350392580","Civil Lines, Allahabad","Biryani, North Indian, Finger Food","1400","4","Rs.","3.5","Good","9ACD32","146","0","1","0","0"
"65","18924376","Zaika Biryani Ka","https://www.zomato.com/allahabad/zaika-biryani-ka-1-colonel-ganj?utm_source=api_basic_user&utm_medium=api&utm_campaign=v2.1","696/820/1, Near Sabji Mandi, Colonel Ganj, Allahabad","Colonel Ganj","Allahabad","24","25.4605390000","81.8563660000","Colonel Ganj, Allahabad","North Indian","200","1","Rs.","3.9","Good","9ACD32","54","0","1","0","0"
"66","18707672","Shahi Darbar Restaurant","https://www.zomato.com/allahabad/shahi-darbar-restaurant-civil-lines?utm_source=api_basic_user&utm_medium=api&utm_campaign=v2.1","30, Tashkent Marg, Civil Lines, Allahabad","Civil Lines","Allahabad","24","25.4563666725","81.8338788673","Civil Lines, Allahabad","North Indian, Chinese, Beverages","450","2","Rs.","3.7","Good","9ACD32","60","0","1","0","0"
"67","2400321","Dosa Plaza","https://www.zomato.com/allahabad/dosa-plaza-1-civil-lines?utm_source=api_basic_user&utm_medium=api&utm_campaign=v2.1","F1, Vinayak Pushp, Elgin Road, Civil Lines, Allahabad","Civil Lines","Allahabad","24","25.4529845798","81.8327865377","Civil Lines, Allahabad","South Indian, North Indian, Chinese","500","3","Rs.","3.6","Good","9ACD32","91","0","1","0","0"
"68","2400661","Black Out Restaurant","https://www.zomato.com/allahabad/black-out-restaurant-katra?utm_source=api_basic_user&utm_medium=api&utm_campaign=v2.1","Allahabad - Pratapgarh Road, Barrister Mullah Colony, MNNIT Allahabad Campus, Teliarganj, Allahabad","Katra","Allahabad","24","25.4933473388","81.8609634787","Katra, Allahabad","North Indian","500","3","Rs.","4.0","Very Good","5BA829","119","0","1","0","0"
"69","2400297","Spicy Bite","https://www.zomato.com/allahabad/spicy-bite-civil-lines?utm_source=api_basic_user&utm_medium=api&utm_campaign=v2.1","Indira Bhawan, Sardar Patel Marg, Civil Lines, Allahabad","Civil Lines","Allahabad","24","25.4496505281","81.8352571875","Civil Lines, Allahabad","North Indian","400","2","Rs.","4.1","Very Good","5BA829","130","0","0","0","0"
"70","2400232","Relish Restaurant- The Legend Hotel","https://www.zomato.com/allahabad/relish-restaurant-the-legend-hotel-civil-lines?utm_source=api_basic_user&utm_medium=api&utm_campaign=v2.1","The Legend Hotel, First Floor, 23 C, Thornhill Road, Civil Lines, Allahabad","The Legend Hotel","Allahabad","24","25.4604739770","81.8332995102","The Legend Hotel, Allahabad","North Indian, Chinese, Italian, Continental","1100","4","Rs.","4.0","Very Good","5BA829","87","0","0","0","0"
"71","2400524","Chill Lounge ","https://www.zomato.com/allahabad/chill-lounge-civil-lines?utm_source=api_basic_user&utm_medium=api&utm_campaign=v2.1","Stretchy Road, Near Vishal Mega Mart, Civil Lines, Allahabad","Civil Lines","Allahabad","24","25.4519407497","81.8326507509","Civil Lines, Allahabad","North Indian, South Indian, Chinese, Continental","800","3","Rs.","3.6","Good","9ACD32","95","0","1","0","0"
"72","18707597","Indish","https://www.zomato.com/allahabad/indish-civil-lines?utm_source=api_basic_user&utm_medium=api&utm_campaign=v2.1","Lifafa, Patrika Crossing, Near Rama Medical Store, Stanly Road, Civil Lines, Allahabad","Civil Lines","Allahabad","24","25.4546462733","81.8411774933","Civil Lines, Allahabad","North Indian, South Indian, Chinese, Continental, Fast Food, Sandwich","500","3","Rs.","3.7","Good","9ACD32","72","0","1","0","0"
"73","2400233","Netram Mulchand & Sons","https://www.zomato.com/allahabad/netram-mulchand-sons-katra?utm_source=api_basic_user&utm_medium=api&utm_campaign=v2.1","259, Katra Chouraha, Katra, Allahabad","Katra","Allahabad","24","25.4646511000","81.7820477000","Katra, Allahabad","Desserts, Mithai","300","2","Rs.","4.1","Very Good","5BA829","207","0","0","0","0"
"74","2400118","Tuck In","https://www.zomato.com/allahabad/tuck-in-civil-lines?utm_source=api_basic_user&utm_medium=api&utm_campaign=v2.1","22-A, Sardar Patel Marg, Civil Lines, Allahabad","Civil Lines","Allahabad","24","25.4541788581","81.8349688500","Civil Lines, Allahabad","Fast Food","250","2","Rs.","3.8","Good","9ACD32","84","0","1","0","0"
"75","2400497","Harish Bhojanalaya & Restaurant","https://www.zomato.com/allahabad/harish-bhojanalaya-restaurant-civil-lines?utm_source=api_basic_user&utm_medium=api&utm_campaign=v2.1","Near Girls High School, Dr Lohia Road, Civil Lines, Allahabad","Civil Lines","Allahabad","24","25.4527929493","81.8288242444","Civil Lines, Allahabad","Fast Food","300","2","Rs.","3.7","Good","9ACD32","62","0","1","0","0"
"76","2400337","Kalptaru Sweets N Bakery","https://www.zomato.com/allahabad/kalptaru-sweets-n-bakery-lukerganj?utm_source=api_basic_user&utm_medium=api&utm_campaign=v2.1","134/1, Jhulelal Nagar, Lukerganj, Allahabad","Lukerganj","Allahabad","24","25.4527875001","81.8347153813","Lukerganj, Allahabad","Fast Food, North Indian, Continental, Beverages, Mithai","450","2","Rs.","3.9","Good","9ACD32","107","0","1","0","0"
"77","18985346","Coffee Machine The Cafe","https://www.zomato.com/allahabad/coffee-machine-the-cafe-1-civil-lines?utm_source=api_basic_user&utm_medium=api&utm_campaign=v2.1","54, Sardar Patel Marg, Sriram Complex, Ground Floor, Civil Lines, Allahabad","Civil Lines","Allahabad","24","25.4571012000","81.8353669000","Civil Lines, Allahabad","Italian, Continental, Beverages","250","2","Rs.","3.8","Good","9ACD32","19","0","1","0","0"
"78","18753893","Rajwada's","https://www.zomato.com/allahabad/rajwadas-colonel-ganj?utm_source=api_basic_user&utm_medium=api&utm_campaign=v2.1","203/170/1, Near Anand Bhawan, Colonel Ganj, Allahabad","Colonel Ganj","Allahabad","24","25.4608184660","81.8594292551","Colonel Ganj, Allahabad","North Indian, South Indian, Chinese, Fast Food","700","3","Rs.","3.7","Good","9ACD32","60","0","1","0","0"
"79","2400503","Fire at Night","https://www.zomato.com/allahabad/fire-at-night-civil-lines?utm_source=api_basic_user&utm_medium=api&utm_campaign=v2.1","10 - A, Sardar Patel Marg, Civil Lines, Allahabad","Civil Lines","Allahabad","24","25.4498766762","81.8342815340","Civil Lines, Allahabad","Finger Food","700","3","Rs.","3.9","Good","9ACD32","62","0","1","0","0"
"80","2400397","Moti Mahal Delux Tandoori Trail","https://www.zomato.com/allahabad/moti-mahal-delux-tandoori-trail-1-civil-lines?utm_source=api_basic_user&utm_medium=api&utm_campaign=v2.1","Shop 18A, Second Floor, Sardar Patel Marg, Above HDFC Bank, Civil Lines, Allahabad","Civil Lines","Allahabad","24","25.4598222303","81.8356451020","Civil Lines, Allahabad","Mughlai, North Indian, Chinese, South Indian","800","3","Rs.","3.8","Good","9ACD32","84","0","1","0","0"
"81","18944049","SuVisto Shakes & Cafe","https://www.zomato.com/allahabad/suvisto-shakes-cafe-george-town?utm_source=api_basic_user&utm_medium=api&utm_campaign=v2.1","56/22/2A, Lowther Road, George Town, Allahabad","George Town","Allahabad","24","25.4493726342","81.8544450292","George Town, Allahabad","Fast Food, Beverages","250","2","Rs.","3.2","Average","CDD614","7","0","1","0","0"
"82","2400039","Dilli Galiyara","https://www.zomato.com/allahabad/dilli-galiyara-civil-lines?utm_source=api_basic_user&utm_medium=api&utm_campaign=v2.1","20-22, 2nd Floor, Vinayak City Centre Mall, Sardar Patel Marg, Civil Lines, Allahabad","Vinayak City Centre Mall, Civil Lines","Allahabad","24","25.4546229631","81.8346443027","Vinayak City Centre Mall, Civil Lines, Allahabad","North Indian, South Indian, Chinese","800","3","Rs.","3.6","Good","9ACD32","82","0","1","0","0"
"83","18974130","USPFC","https://www.zomato.com/allahabad/uspfc-2-civil-lines?utm_source=api_basic_user&utm_medium=api&utm_campaign=v2.1","Lower Ground, Kharbanda Complex, Building 1, Sardar Patel Marg Civil Lines, Allahabad","Civil Lines","Allahabad","24","25.4480640000","81.8343370000","Civil Lines, Allahabad","Burger, Sandwich, Fast Food","200","1","Rs.","3.6","Good","9ACD32","16","0","1","0","0"
"84","18929374","U S PIZZA","https://www.zomato.com/allahabad/u-s-pizza-katra?utm_source=api_basic_user&utm_medium=api&utm_campaign=v2.1","792/599, Mumfordganj, Katra, Allahabad","Katra","Allahabad","24","25.4750480000","81.8582670000","Katra, Allahabad","Pizza, Salad, Beverages","700","3","Rs.","3.6","Good","9ACD32","44","0","1","0","0"
"85","18892167","Jaiswal Dosa Corner","https://www.zomato.com/allahabad/jaiswal-dosa-corner-george-town?utm_source=api_basic_user&utm_medium=api&utm_campaign=v2.1","Lower Ground Floor, 257A/12, M.G. Marg, Near Medical Chauraha, George Town, Allahabad","George Town","Allahabad","24","25.4463609000","81.8517769000","George Town, Allahabad","South Indian","150","1","Rs.","3.7","Good","9ACD32","38","0","1","0","0"
"86","2400600","Hot n Cool","https://www.zomato.com/allahabad/hot-n-cool-naini?utm_source=api_basic_user&utm_medium=api&utm_campaign=v2.1","262, Armaan Market, Indalpur Road, Mahewa, Near Bank Of Baroda, Naini, Allahabad","Naini","Allahabad","24","25.4101150155","81.8447079510","Naini, Allahabad","Fast Food, Chinese","300","2","Rs.","4.0","Very Good","5BA829","105","0","1","0","0"
"87","2400579","Muktanandam Moti Mahal Delux","https://www.zomato.com/allahabad/muktanandam-moti-mahal-delux-1-civil-lines?utm_source=api_basic_user&utm_medium=api&utm_campaign=v2.1","77A/29, Lal Bahadur Shastri Marg, Near Vishal Mega Mart, Civil Lines, Allahabad","Civil Lines","Allahabad","24","25.4520324788","81.8326272815","Civil Lines, Allahabad","North Indian, Mughlai","750","3","Rs.","3.9","Good","9ACD32","40","0","1","0","0"
"88","2400036","Reserveseats","https://www.zomato.com/allahabad/reserveseats-katra?utm_source=api_basic_user&utm_medium=api&utm_campaign=v2.1","12/22/1, Master Zaharool Hasan Road, Mufordganj, Katra, Allahabad","Katra","Allahabad","24","25.4726282705","81.8573153391","Katra, Allahabad","North Indian, South Indian, Chinese","700","3","Rs.","3.8","Good","9ACD32","63","0","1","0","0"
"89","2400689","Jai Shri Shankar Bhojnalaya","https://www.zomato.com/allahabad/jai-shri-shankar-bhojnalaya-civil-lines?utm_source=api_basic_user&utm_medium=api&utm_campaign=v2.1","18/A M.G.Road, Civil Lines Allahabad","Civil Lines","Allahabad","24","25.4509526145","81.8309059739","Civil Lines, Allahabad","North Indian","300","2","Rs.","4.0","Very Good","5BA829","73","0","1","0","0"
"90","2400696","Aroma","https://www.zomato.com/allahabad/aroma-civil-lines?utm_source=api_basic_user&utm_medium=api&utm_campaign=v2.1","LBS Marg, Civil Lines, Allahabad","Civil Lines","Allahabad","24","25.4529294823","81.8288473785","Civil Lines, Allahabad","Mughlai, North Indian","500","3","Rs.","3.8","Good","9ACD32","54","0","1","0","0"
"91","18708529","Balaji Idli House","https://www.zomato.com/allahabad/balaji-idli-house-tagore-town?utm_source=api_basic_user&utm_medium=api&utm_campaign=v2.1","285/132, Near Kundan Guest House, Tagore Town, Allahabad","Tagore Town","Allahabad","24","25.4586249808","81.8656221405","Tagore Town, Allahabad","South Indian, North Indian","500","3","Rs.","3.9","Good","9ACD32","47","0","1","0","0"
"92","2400262","Kanha Sweets & Restaurant","https://www.zomato.com/allahabad/kanha-sweets-restaurant-katra?utm_source=api_basic_user&utm_medium=api&utm_campaign=v2.1","48/B , Katra, Allahabad","Katra","Allahabad","24","25.4647536000","81.8522768000","Katra, Allahabad","North Indian, Desserts","400","2","Rs.","3.7","Good","9ACD32","36","0","1","0","0"
"93","18917979","Kathi Express","https://www.zomato.com/allahabad/kathi-express-colonel-ganj?utm_source=api_basic_user&utm_medium=api&utm_campaign=v2.1","Rajveer Shoping Complex, 698/820A-1, Colonel Ganj, Allahabad","Colonel Ganj","Allahabad","24","25.4609931318","81.8564060703","Colonel Ganj, Allahabad","North Indian","200","1","Rs.","3.8","Good","9ACD32","33","0","1","0","0"
"94","18805838","Malt","https://www.zomato.com/allahabad/malt-1-civil-lines?utm_source=api_basic_user&utm_medium=api&utm_campaign=v2.1","1/31, Sardar Patel Marg, Agnipath Colony, Near US Polo Showroom, Civil Lines, Allahabad","Civil Lines","Allahabad","24","25.4553930000","81.8357800000","Civil Lines, Allahabad","Cafe","500","3","Rs.","4.0","Very Good","5BA829","49","0","1","0","0"
"95","2400275","Cafe Coffee Day","https://www.zomato.com/allahabad/cafe-coffee-day-civil-lines?utm_source=api_basic_user&utm_medium=api&utm_campaign=v2.1","Vinayak Complex, Ruglin Road, Civil Lines, Allahabad","Civil Lines","Allahabad","24","25.4524360252","81.8369369209","Civil Lines, Allahabad","Cafe","500","3","Rs.","3.6","Good","9ACD32","61","0","0","0","0"
"96","18816376","Stark House Cafe","https://www.zomato.com/allahabad/stark-house-cafe-civil-lines?utm_source=api_basic_user&utm_medium=api&utm_campaign=v2.1","F1, Vinayak Pushp, Elgin Road, Civil Lines, Allahabad","Civil Lines","Allahabad","24","25.4522446965","81.8329635635","Civil Lines, Allahabad","Mexican, Italian","550","3","Rs.","3.8","Good","9ACD32","42","0","0","0","0"
"97","2400392","Bean Here","https://www.zomato.com/allahabad/bean-here-ashok-nagar?utm_source=api_basic_user&utm_medium=api&utm_campaign=v2.1","215/180B/1, Muir Road, Ashok Nagar, Allahabad","Ashok Nagar","Allahabad","24","25.4673269422","81.8226266652","Ashok Nagar, Allahabad","Cafe, Fast Food","350","2","Rs.","3.8","Good","9ACD32","72","0","1","0","0"
"98","18788771","Skylight Coffee Cafe","https://www.zomato.com/allahabad/skylight-coffee-cafe-civil-lines?utm_source=api_basic_user&utm_medium=api&utm_campaign=v2.1","Millennium Inn, 7F/6A, Hastings Road, Nyaya Marg, Civil Lines, Allahabad","Civil Lines","Allahabad","24","25.4507371000","81.8198134000","Civil Lines, Allahabad","Coffee, Italian","800","3","Rs.","3.7","Good","9ACD32","17","0","1","0","0"
"99","18886157","The Baker's Table","https://www.zomato.com/allahabad/the-bakers-table-george-town?utm_source=api_basic_user&utm_medium=api&utm_campaign=v2.1","1 B, Amarnath Jha Marg, Opposite Vidya Vahini School, George Town, Allahabad","George Town","Allahabad","24","25.4453060000","81.8561940000","George Town, Allahabad","Desserts, Bakery","300","2","Rs.","3.5","Good","9ACD32","8","0","1","0","0"
"100","2400566","Rolls Mania","https://www.zomato.com/allahabad/rolls-mania-ashok-nagar?utm_source=api_basic_user&utm_medium=api&utm_campaign=v2.1","76-A, Muir Road, Opposite Rishikul Inter College, Ashok Nagar, Allahabad","Ashok Nagar","Allahabad","24","25.4669101270","81.8252146617","Ashok Nagar, Allahabad","Rolls, Fast Food","450","2","Rs.","4.0","Very Good","5BA829","103","0","1","0","0"
"101","18209832","Zyka Restaurant","https://www.zomato.com/kanpur/zyka-restaurant-parade?utm_source=api_basic_user&utm_medium=api&utm_campaign=v2.1","40/74, Hospital Road, Parade, Kanpur","Parade","Kanpur","23","26.4726216705","80.3474522755","Parade, Kanpur","Mughlai","300","1","Rs.","4.1","Very Good","5BA829","537","0","1","0","0"
"102","2300979","Mocha ","https://www.zomato.com/kanpur/mocha-mall-road?utm_source=api_basic_user&utm_medium=api&utm_campaign=v2.1","15 / 198, Civil Lines, Mall Road, Kanpur","Mall Road","Kanpur","23","26.4780603452","80.3483534977","Mall Road, Kanpur","Cafe","1000","3","Rs.","4.8","Excellent","3F7E00","820","0","1","0","0"
"103","2300179","Talk Of The Town","https://www.zomato.com/kanpur/talk-of-the-town-ashok-nagar?utm_source=api_basic_user&utm_medium=api&utm_campaign=v2.1","118/164, Kaushal Puri, Gumti 5, Ashok Nagar, Kanpur","Ashok Nagar","Kanpur","23","26.4682197031","80.3156312183","Ashok Nagar, Kanpur","Chinese","350","2","Rs.","4.4","Very Good","5BA829","522","0","1","0","0"
"104","2301845","Mi Casa","https://www.zomato.com/kanpur/mi-casa-ashok-nagar?utm_source=api_basic_user&utm_medium=api&utm_campaign=v2.1","111/83B, Near Fatima Convent School, Ashok Nagar, Kanpur","Ashok Nagar","Kanpur","23","26.4733482000","80.3143467000","Ashok Nagar, Kanpur","Continental, Italian, Fast Food, Burger, American, Chinese","500","2","Rs.","4.4","Very Good","5BA829","128","0","1","0","0"
"105","2300299","Domino's Pizza","https://www.zomato.com/kanpur/dominos-pizza-kidwai-nagar-market?utm_source=api_basic_user&utm_medium=api&utm_campaign=v2.1","Ground Floor, Shop 6 & 7, O Block, South X Mall, Kidwai Nagar Market, Kanpur","Kidwai Nagar Market","Kanpur","23","26.4379600000","80.3356800000","Kidwai Nagar Market, Kanpur","Pizza, Fast Food","700","2","Rs.","3.6","Good","9ACD32","949","0","0","0","0"
"106","2300183","Mr Brown","https://www.zomato.com/kanpur/mr-brown-mall-road?utm_source=api_basic_user&utm_medium=api&utm_campaign=v2.1","16/12, Phoolbagh, Mall Road, Kanpur","Mall Road","Kanpur","23","26.4669189191","80.3593347967","Mall Road, Kanpur","Bakery, Desserts, Fast Food","550","2","Rs.","4.2","Very Good","5BA829","723","0","0","0","0"
"107","2300084","Treat","https://www.zomato.com/kanpur/treat-mall-road?utm_source=api_basic_user&utm_medium=api&utm_campaign=v2.1","90, Basement, Naveen Market, Mall Road, Kanpur","Naveen Market, Mall Road","Kanpur","23","26.4748674583","80.3451770917","Naveen Market, Mall Road, Kanpur","Fast Food, North Indian","500","2","Rs.","4.1","Very Good","5BA829","352","0","1","0","0"
"108","2300884","Sagar Ratna","https://www.zomato.com/kanpur/sagar-ratna-lajpat-nagar?utm_source=api_basic_user&utm_medium=api&utm_campaign=v2.1","120/601, Near Mariampur School, Lajpat Nagar, Narainpurwa, Kanpur","Lajpat Nagar","Kanpur","23","26.4688376754","80.3039314225","Lajpat Nagar, Kanpur","South Indian, North Indian, Chinese","500","2","Rs.","4.2","Very Good","5BA829","411","0","1","0","0"
"109","2300190","Baba Foods","https://www.zomato.com/kanpur/baba-foods-swaroop-nagar?utm_source=api_basic_user&utm_medium=api&utm_campaign=v2.1","112/339, Mall Rd, Khalasi Line, Swaroop Nagar, Kanpur","Swaroop Nagar","Kanpur","23","26.4811379053","80.3176546097","Swaroop Nagar, Kanpur","Mughlai, Hyderabadi","500","2","Rs.","4.3","Very Good","5BA829","833","0","0","0","0"
"110","2300175","Mithas","https://www.zomato.com/kanpur/mithas-swaroop-nagar?utm_source=api_basic_user&utm_medium=api&utm_campaign=v2.1","7/1081, Near Khanna Motor, Swaroop Nagar, Kanpur","Swaroop Nagar","Kanpur","23","26.4852909000","80.3213125000","Swaroop Nagar, Kanpur","Mithai, Fast Food, Street Food, South Indian","250","1","Rs.","4.4","Very Good","5BA829","396","0","1","0","0"
"111","2300003","Anaicha's Food Joint","https://www.zomato.com/kanpur/anaichas-food-joint-swaroop-nagar?utm_source=api_basic_user&utm_medium=api&utm_campaign=v2.1","113/187, Swaroop Nagar, Kanpur","Swaroop Nagar","Kanpur","23","26.4825861757","80.3156945854","Swaroop Nagar, Kanpur","North Indian, South Indian, Continental, Chinese, Italian, Fast Food, Street Food, Beverages","1000","3","Rs.","4.0","Very Good","5BA829","323","0","1","0","0"
"112","2300035","KFC","https://www.zomato.com/kanpur/kfc-mall-road?utm_source=api_basic_user&utm_medium=api&utm_campaign=v2.1","3rd Floor, Z Square Mall, Bada Chauraha, Kanpur, Mall Road, Kanpur","Z Square Mall, Mall Road","Kanpur","23","26.4731426804","80.3526852652","Z Square Mall, Mall Road, Kanpur","Burger, Fast Food","400","2","Rs.","4.1","Very Good","5BA829","575","0","1","0","0"
"113","2300065","Gyan Vaishnav","https://www.zomato.com/kanpur/gyan-vaishnav-ashok-nagar?utm_source=api_basic_user&utm_medium=api&utm_campaign=v2.1","Gumti 5,Kaushal Puri, Ashok Nagar, Kanpur","Ashok Nagar","Kanpur","23","26.4692461536","80.3155668452","Ashok Nagar, Kanpur","North Indian","200","1","Rs.","4.3","Very Good","5BA829","543","0","0","0","0"
"114","18503663","Busy Beans","https://www.zomato.com/kanpur/busy-beans-arya-nagar?utm_source=api_basic_user&utm_medium=api&utm_campaign=v2.1","Shop 16, Lower Ground Floor, 7/119, Radiance Town, Arya Nagar, Kanpur","Arya Nagar","Kanpur","23","26.4833169061","80.3196273744","Arya Nagar, Kanpur","Fast Food, Italian","250","1","Rs.","4.8","Excellent","3F7E00","287","0","1","0","0"
"115","2301194","Sweet Affairs","https://www.zomato.com/kanpur/sweet-affairs-swaroop-nagar?utm_source=api_basic_user&utm_medium=api&utm_campaign=v2.1","112/245 B, Khairabad hospital lane, Swaroop Nagar, Kanpur, Uttar Pradesh , Kanpur","Swaroop Nagar","Kanpur","23","26.4828241490","80.3189898950","Swaroop Nagar, Kanpur","Italian, Desserts","600","2","Rs.","4.5","Excellent","3F7E00","328","0","1","0","0"
"116","2301003","The Bun Street","https://www.zomato.com/kanpur/the-bun-street-swaroop-nagar?utm_source=api_basic_user&utm_medium=api&utm_campaign=v2.1","112/346, Khalasi Line, Swaroop Nagar, Kanpur, Uttar Pradesh","Swaroop Nagar","Kanpur","23","26.4821285000","80.3152869000","Swaroop Nagar, Kanpur","Cafe","350","2","Rs.","4.0","Very Good","5BA829","299","0","1","0","0"
"117","18255045","Ajmeri Darbar","https://www.zomato.com/kanpur/ajmeri-darbar-chamanganj?utm_source=api_basic_user&utm_medium=api&utm_campaign=v2.1","105/655, Qasim Ganj, Deputy Ka Parao, Near Chamanganj, Chamanganj, Kanpur","Chamanganj","Kanpur","23","26.4646618708","80.3376249969","Chamanganj, Kanpur","Awadhi, Mughlai","400","2","Rs.","3.8","Good","9ACD32","333","0","1","0","0"
"118","2300092","Pandit's","https://www.zomato.com/kanpur/pandits-shastri-nagar?utm_source=api_basic_user&utm_medium=api&utm_campaign=v2.1","Opposite Mariampur School, Shastri Nagar, Kanpur","Shastri Nagar","Kanpur","23","26.4663231467","80.3053603694","Shastri Nagar, Kanpur","Street Food, Mithai","450","2","Rs.","4.2","Very Good","5BA829","294","0","1","0","0"
"119","2301172","The Chocolate Room","https://www.zomato.com/kanpur/the-chocolate-room-swaroop-nagar?utm_source=api_basic_user&utm_medium=api&utm_campaign=v2.1","Near Axis Bank, Arya Nagar, Swaroop Nagar, Kanpur","Swaroop Nagar","Kanpur","23","26.4834774561","80.3202801570","Swaroop Nagar, Kanpur","Desserts, Bakery, Beverages, Fast Food","300","1","Rs.","4.2","Very Good","5BA829","248","0","1","0","0"
"120","2301415","Bakista","https://www.zomato.com/kanpur/bakista-kidwai-nagar?utm_source=api_basic_user&utm_medium=api&utm_campaign=v2.1","133/5 N Block, Kidwai Nagar, Kanpur","Kidwai Nagar","Kanpur","23","26.4331180000","80.3236340000","Kidwai Nagar, Kanpur","Bakery, Fast Food, Beverages, Pizza, Sandwich","400","2","Rs.","4.4","Very Good","5BA829","187","0","1","0","0"
"121","2300947","Samocha: Stories Around Chai","https://www.zomato.com/kanpur/samocha-stories-around-chai-swaroop-nagar?utm_source=api_basic_user&utm_medium=api&utm_campaign=v2.1","112/245 - B, Khairabad Road, Swaroop Nagar, Kanpur","Swaroop Nagar","Kanpur","23","26.4826360000","80.3189440000","Swaroop Nagar, Kanpur","Cafe","250","1","Rs.","4.6","Excellent","3F7E00","366","0","1","0","0"
"122","2300616","Arabian Broost Chicken","https://www.zomato.com/kanpur/arabian-broost-chicken-chamanganj?utm_source=api_basic_user&utm_medium=api&utm_campaign=v2.1","105/218, Chamanganj, Kanpur","Chamanganj","Kanpur","23","26.4685760000","80.3317480000","Chamanganj, Kanpur","Arabian","450","2","Rs.","3.9","Good","9ACD32","211","0","1","0","0"
"123","2300981","Bazooka","https://www.zomato.com/kanpur/bazooka-swaroop-nagar?utm_source=api_basic_user&utm_medium=api&utm_campaign=v2.1","7/191 near gastro liver, Swaroop Nagar, Kanpur","Swaroop Nagar","Kanpur","23","26.4825248000","80.3105713000","Swaroop Nagar, Kanpur","Cafe, North Indian, Chinese","500","2","Rs.","3.9","Good","9ACD32","846","0","1","1","1"
"124","18377936","Liquid","https://www.zomato.com/kanpur/liquid-ashok-nagar?utm_source=api_basic_user&utm_medium=api&utm_campaign=v2.1","The Terrace, Ratan Zone, Coca-Cola Crossing, Ashok Nagar, Kanpur","Ashok Nagar","Kanpur","23","26.4680040000","80.3122900000","Ashok Nagar, Kanpur","Finger Food, North Indian, Continental, Italian, Mediterranean","1000","3","Rs.","4.0","Very Good","5BA829","283","0","1","0","0"
"125","18490934","CHOOLAAH","https://www.zomato.com/kanpur/choolaah-lajpat-nagar?utm_source=api_basic_user&utm_medium=api&utm_campaign=v2.1","120/854 A, Lajpat Nagar, Kanpur","Lajpat Nagar","Kanpur","23","26.4683388559","80.3039572388","Lajpat Nagar, Kanpur","Mughlai, Chinese","700","2","Rs.","4.0","Very Good","5BA829","366","0","1","0","0"
"126","18440782","D-Cafe","https://www.zomato.com/kanpur/d-cafe-mall-road?utm_source=api_basic_user&utm_medium=api&utm_campaign=v2.1","90, Naveen Market, Mall Road, Kanpur","Mall Road","Kanpur","23","26.4748950690","80.3453497589","Mall Road, Kanpur","Cafe, Asian, North Indian","800","3","Rs.","4.1","Very Good","5BA829","188","0","1","0","0"
"127","2301090","Khan Baba","https://www.zomato.com/kanpur/khan-baba-2-mall-road?utm_source=api_basic_user&utm_medium=api&utm_campaign=v2.1","Mega Mall, Near Heer Palace, Mall Road, Kanpur","Mall Road","Kanpur","23","26.4623708616","80.3594115749","Mall Road, Kanpur","Afghan, Mughlai, Rolls","500","2","Rs.","4.1","Very Good","5BA829","311","0","1","1","1"
"128","18379190","Offline Cafe","https://www.zomato.com/kanpur/offline-cafe-tilak-nagar?utm_source=api_basic_user&utm_medium=api&utm_campaign=v2.1","10/503, Near Lakme Salon, Tilak Nagar, Kanpur","Tilak Nagar","Kanpur","23","26.4850664389","80.3247795627","Tilak Nagar, Kanpur","Cafe, Continental","800","3","Rs.","4.2","Very Good","5BA829","523","0","1","0","0"
"129","2300018","Little Chef","https://www.zomato.com/kanpur/little-chef-mall-road?utm_source=api_basic_user&utm_medium=api&utm_campaign=v2.1","15/198- A, Near Civil Court, Civil Lines, Near, Mall Road, Kanpur","Mall Road","Kanpur","23","26.4775828733","80.3505190462","Mall Road, Kanpur","North Indian, Fast Food","1000","3","Rs.","4.4","Very Good","5BA829","403","0","0","0","0"
"130","18696081","Murga Shurga Family Restaurant","https://www.zomato.com/kanpur/murga-shurga-family-restaurant-lajpat-nagar?utm_source=api_basic_user&utm_medium=api&utm_campaign=v2.1","120/4, Opposite Gurunanak School, Lajpat Nagar, Kanpur","Lajpat Nagar","Kanpur","23","26.4687760000","80.3098180000","Lajpat Nagar, Kanpur","Mughlai","650","2","Rs.","4.3","Very Good","5BA829","389","0","1","0","0"
"131","2300374","Latika's Thalia","https://www.zomato.com/kanpur/latikas-thalia-swaroop-nagar?utm_source=api_basic_user&utm_medium=api&utm_campaign=v2.1","112/343 A1, Kanchan Tower, Swaroop Nagar, Kanpur","Swaroop Nagar","Kanpur","23","26.4818060000","80.3176150000","Swaroop Nagar, Kanpur","Bakery, Desserts, Fast Food","550","2","Rs.","4.2","Very Good","5BA829","168","0","1","0","0"
"132","2300943","Anil Meat Wala","https://www.zomato.com/kanpur/anil-meat-wala-nandlal-chawraha?utm_source=api_basic_user&utm_medium=api&utm_campaign=v2.1","Labour Colony, Govind Nagar, Nandlal, Chawraha, Kanpur","Nandlal Chawraha","Kanpur","23","26.4502109112","80.2981931716","Nandlal Chawraha, Kanpur","Mughlai","300","1","Rs.","3.9","Good","9ACD32","405","0","1","0","0"
"133","2300549","Mithas","https://www.zomato.com/kanpur/mithas-kidwai-nagar?utm_source=api_basic_user&utm_medium=api&utm_campaign=v2.1","Plot no. 110, G-Block, Kanpur Kidwai Nagar, Kidwai Nagar, Kanpur","Kidwai Nagar","Kanpur","23","26.4256709832","80.3273903579","Kidwai Nagar, Kanpur","Mithai, Desserts, Fast Food, Street Food","400","2","Rs.","4.1","Very Good","5BA829","290","0","1","0","0"
"134","2300398","Jai Siyaram Hotel","https://www.zomato.com/kanpur/jai-siyaram-hotel-ghantaghar?utm_source=api_basic_user&utm_medium=api&utm_campaign=v2.1","Collector Ganj, Chauraha, Near Kanpur Cinema, Ghantaghar, Kanpur","Ghantaghar","Kanpur","23","26.4574984509","80.3495534509","Ghantaghar, Kanpur","North Indian","400","2","Rs.","4.0","Very Good","5BA829","219","0","1","0","0"
"135","18391601","Barbeque Nation","https://www.zomato.com/kanpur/barbeque-nation-mall-road?utm_source=api_basic_user&utm_medium=api&utm_campaign=v2.1","16/113, 3rd Floor, Z Square Mall, MG Marg, Mall Road, Kanpur","Z Square Mall, Mall Road","Kanpur","23","26.4731792950","80.3522557765","Z Square Mall, Mall Road, Kanpur","North Indian, Mughlai, Lebanese, Arabian, Mediterranean","1400","3","Rs.","4.7","Excellent","3F7E00","438","0","0","1","1"
"136","2301436","Frozen Junction","https://www.zomato.com/kanpur/frozen-junction-1-kidwai-nagar-market?utm_source=api_basic_user&utm_medium=api&utm_campaign=v2.1","128/27, Behind Hanuman Mandir, Kidwai Nagar Market, Kanpur","Kidwai Nagar Market","Kanpur","23","26.4325973000","80.3322247000","Kidwai Nagar Market, Kanpur","Desserts","300","1","Rs.","4.5","Excellent","3F7E00","135","0","1","0","0"
"137","2300340","S.D.Chat & Fast Food Corner","https://www.zomato.com/kanpur/s-d-chat-fast-food-corner-mall-road?utm_source=api_basic_user&utm_medium=api&utm_campaign=v2.1","Naveen Market, Mall Road, Kanpur","Naveen Market, Mall Road","Kanpur","23","26.4742873332","80.3456562012","Naveen Market, Mall Road, Kanpur","Chinese, Fast Food","300","1","Rs.","3.9","Good","9ACD32","147","0","1","0","0"
"138","2301347","Zinaldia","https://www.zomato.com/kanpur/zinaldia-3-swaroop-nagar?utm_source=api_basic_user&utm_medium=api&utm_campaign=v2.1","7/150, Sales Tax Road, Swaroop Nagar, Kanpur","Swaroop Nagar","Kanpur","23","26.4833283096","80.3141623735","Swaroop Nagar, Kanpur","North Indian, Chinese, Italian, Mexican, Continental","1200","3","Rs.","4.4","Very Good","5BA829","152","0","1","0","0"
"139","2300502","Silver Spoons","https://www.zomato.com/kanpur/silver-spoons-kakadeo?utm_source=api_basic_user&utm_medium=api&utm_campaign=v2.1","117/N/64, Kakadeo, Kanpur","Kakadeo","Kanpur","23","26.4764820696","80.2949067950","Kakadeo, Kanpur","Bakery, Fast Food, Chinese, Continental, Italian, Momos, Pizza","700","2","Rs.","4.3","Very Good","5BA829","398","0","1","0","0"
"140","2300176","Aromas","https://www.zomato.com/kanpur/aromas-swaroop-nagar?utm_source=api_basic_user&utm_medium=api&utm_campaign=v2.1","7/135, Opposite Indian Overses Bank, Swaroop Nagar, Kanpur","Swaroop Nagar","Kanpur","23","26.4828436574","80.3178383410","Swaroop Nagar, Kanpur","Fast Food, Rolls","400","2","Rs.","4.2","Very Good","5BA829","500","0","0","0","0"
"141","2300491","The Hidden Lounge","https://www.zomato.com/kanpur/the-hidden-lounge-swaroop-nagar?utm_source=api_basic_user&utm_medium=api&utm_campaign=v2.1","113/340 A, Swaroop Nagar, Kanpur","Swaroop Nagar","Kanpur","23","26.4822329626","80.3146146610","Swaroop Nagar, Kanpur","Chinese, North Indian, Continental","700","2","Rs.","4.3","Very Good","5BA829","384","0","1","0","0"
"142","2300876","Feast India Company","https://www.zomato.com/kanpur/feast-india-company-swaroop-nagar?utm_source=api_basic_user&utm_medium=api&utm_campaign=v2.1","7/195 (A), Swaroop Nagar, Kanpur","Swaroop Nagar","Kanpur","23","26.4818110262","80.3109973669","Swaroop Nagar, Kanpur","Continental, Italian, North Indian","800","3","Rs.","3.7","Good","9ACD32","182","0","1","0","0"
"143","2301416","Gyan Vaishnav Restaurant","https://www.zomato.com/kanpur/gyan-vaishnav-restaurant-2-ghantaghar?utm_source=api_basic_user&utm_medium=api&utm_campaign=v2.1","75/22, Halsey Road Road, Collectorganj, Ghantaghar, Kanpur","Ghantaghar","Kanpur","23","26.4617840000","80.3474194000","Ghantaghar, Kanpur","North Indian","250","1","Rs.","3.7","Good","9ACD32","113","0","1","0","0"
"144","2301004","Domino's Pizza","https://www.zomato.com/kanpur/dominos-pizza-swaroop-nagar?utm_source=api_basic_user&utm_medium=api&utm_campaign=v2.1","Shop No. 113/138 & 139, Ground Floor, Opp. Shiv Mandir, Block C, Swaroop Nagar, Kanpur","Swaroop Nagar","Kanpur","23","26.4806675200","80.3169749200","Swaroop Nagar, Kanpur","Fast Food, Pizza","600","2","Rs.","3.9","Good","9ACD32","196","0","0","0","0"
"145","2300775","Eclair","https://www.zomato.com/kanpur/eclair-lajpat-nagar?utm_source=api_basic_user&utm_medium=api&utm_campaign=v2.1","117/H-1/481, Pandu Nagar, Lajpat Nagar, Kanpur","Lajpat Nagar","Kanpur","23","26.4731640000","80.3031630000","Lajpat Nagar, Kanpur","Bakery, Desserts","400","2","Rs.","4.1","Very Good","5BA829","168","0","1","0","0"
"146","18312106","UrbanCrave","https://www.zomato.com/kanpur/urbancrave-parade?utm_source=api_basic_user&utm_medium=api&utm_campaign=v2.1","14/125, The Mall, Mall Road, Colonelganj, Parade, Kanpur","Parade","Kanpur","23","26.4749940000","80.3427300000","Parade, Kanpur","Cafe, Continental, Desserts, Ice Cream, Italian, Beverages","1200","3","Rs.","4.0","Very Good","5BA829","330","0","1","0","0"
"147","2300058","Dhuaan","https://www.zomato.com/kanpur/dhuaan-tagore-road?utm_source=api_basic_user&utm_medium=api&utm_campaign=v2.1","Status Club, 58 Cantonment Area, Tagore Road, Kanpur","Status Club, Kanpur Cantonment","Kanpur","23","26.4635040000","80.3729280000","Status Club, Kanpur Cantonment, Kanpur","Mediterranean, Asian","1500","4","Rs.","4.2","Very Good","5BA829","317","0","1","0","0"
"148","2300469","Spicy Corner","https://www.zomato.com/kanpur/spicy-corner-lajpat-nagar?utm_source=api_basic_user&utm_medium=api&utm_campaign=v2.1","122/1, Sarojni Nagar, Lajpat Nagar, Kanpur","Lajpat Nagar","Kanpur","23","26.4671638889","80.3083500000","Lajpat Nagar, Kanpur","North Indian, Chinese","600","2","Rs.","4.1","Very Good","5BA829","208","0","1","0","0"
"149","2301092","Choolaah : Your Everyday Food","https://www.zomato.com/kanpur/choolaah-your-everyday-food-swaroop-nagar?utm_source=api_basic_user&utm_medium=api&utm_campaign=v2.1","112/350, Swaroop Nagar, Kanpur","Swaroop Nagar","Kanpur","23","26.4828139480","80.3175684437","Swaroop Nagar, Kanpur","Mughlai, Chinese","700","2","Rs.","4.1","Very Good","5BA829","180","0","1","0","0"
"150","2300033","Pizza Hut","https://www.zomato.com/kanpur/pizza-hut-mall-road?utm_source=api_basic_user&utm_medium=api&utm_campaign=v2.1","3rd Floor, Z Square Mall, Mall Road, Kanpur","Z Square Mall, Mall Road","Kanpur","23","26.4731934007","80.3527932242","Z Square Mall, Mall Road, Kanpur","Italian, Pizza","700","2","Rs.","3.7","Good","9ACD32","491","0","0","0","0"
"151","2301400","Baba Biryani","https://www.zomato.com/kanpur/baba-biryani-kidwai-nagar?utm_source=api_basic_user&utm_medium=api&utm_campaign=v2.1","South X Mall, Kidwai Nagar, Kanpur","Kidwai Nagar","Kanpur","23","26.4380690000","80.3358240000","Kidwai Nagar, Kanpur","Mughlai, Hyderabadi","500","2","Rs.","3.9","Good","9ACD32","267","0","1","0","0"
"152","2300984","Foodoo Pizza","https://www.zomato.com/kanpur/foodoo-pizza-kidwai-nagar?utm_source=api_basic_user&utm_medium=api&utm_campaign=v2.1","128/98 F, Block F, Kidwainagar Road, Kidwai Nagar, Kanpur","Kidwai Nagar","Kanpur","23","26.4353420356","80.3301272169","Kidwai Nagar, Kanpur","Fast Food, Pizza, Chinese","400","2","Rs.","3.7","Good","9ACD32","366","0","1","0","0"
"153","2300054","LIV at the Deck - The Landmark Hotel","https://www.zomato.com/kanpur/liv-at-the-deck-the-landmark-hotel-mall-road?utm_source=api_basic_user&utm_medium=api&utm_campaign=v2.1","The Landmark Hotel, Landmark Towers, 10, Near Naveen Market, Mall Road, Kanpur","The Landmark Hotel, Mall Road","Kanpur","23","26.4738761719","80.3481536731","The Landmark Hotel, Mall Road, Kanpur","Continental","2000","4","Rs.","4.2","Very Good","5BA829","121","0","0","0","0"
"154","2300383","Shree Neelam Hotel & Restaurant","https://www.zomato.com/kanpur/shree-neelam-hotel-restaurant-ghantaghar?utm_source=api_basic_user&utm_medium=api&utm_campaign=v2.1","Latouche Road, Ghantaghar, Kanpur","Ghantaghar","Kanpur","23","26.4578307287","80.3496704623","Ghantaghar, Kanpur","North Indian","250","1","Rs.","4.0","Very Good","5BA829","132","0","1","0","0"
"155","2300368","Energy Store","https://www.zomato.com/kanpur/energy-store-swaroop-nagar?utm_source=api_basic_user&utm_medium=api&utm_campaign=v2.1","Ground Floor, Radiance Town, Swaroop Nagar, Kanpur","Swaroop Nagar","Kanpur","23","26.4831488535","80.3194342554","Swaroop Nagar, Kanpur","North Indian","400","2","Rs.","4.6","Excellent","3F7E00","647","0","0","0","0"
"156","2300104","Spicy Foods","https://www.zomato.com/kanpur/spicy-foods-kidwai-nagar-market?utm_source=api_basic_user&utm_medium=api&utm_campaign=v2.1","Shop 6, M Block, KK Market, Kidwai Nagar Market, Kanpur","Kidwai Nagar Market","Kanpur","23","26.4333548705","80.3333384916","Kidwai Nagar Market, Kanpur","North Indian, Fast Food","350","2","Rs.","4.0","Very Good","5BA829","399","0","1","0","0"
"157","18697142","Facebook Point","https://www.zomato.com/kanpur/facebook-point-1-nandlal-chawraha?utm_source=api_basic_user&utm_medium=api&utm_campaign=v2.1","Lal Quarter, Govind Nagar, Kanpur, Nandlal Chawraha, Kanpur","Nandlal Chawraha","Kanpur","23","26.4497360254","80.2974133193","Nandlal Chawraha, Kanpur","Burger, Chinese, North Indian, Rolls","400","2","Rs.","3.9","Good","9ACD32","325","0","1","0","0"
"158","2300043","Domino's Pizza","https://www.zomato.com/kanpur/dominos-pizza-tilak-nagar?utm_source=api_basic_user&utm_medium=api&utm_campaign=v2.1","Rave 3, Plot 11, Block 6 Parwati Bagla Road, Tilak Nagar, Kanpur","Rave 3, Tilak Nagar","Kanpur","23","26.4921366210","80.3275774419","Rave 3, Tilak Nagar, Kanpur","Pizza, Fast Food","700","2","Rs.","4.1","Very Good","5BA829","381","0","0","0","0"
"159","2300034","McDonald's","https://www.zomato.com/kanpur/mcdonalds-mall-road?utm_source=api_basic_user&utm_medium=api&utm_campaign=v2.1","3rd Floor, Z Square Mall, Mall Road, Kanpur","Z Square Mall, Mall Road","Kanpur","23","26.4740415369","80.3527680784","Z Square Mall, Mall Road, Kanpur","Burger, Fast Food","500","2","Rs.","4.1","Very Good","5BA829","510","0","0","0","0"
"160","18811702","Barra House","https://www.zomato.com/kanpur/barra-house-kanpur-cantt?utm_source=api_basic_user&utm_medium=api&utm_campaign=v2.1","650, Faithful Ganj, Hospital Road, Cantt, Kanpur Cantt, Kanpur","Kanpur Cantt","Kanpur","23","26.4519900000","80.3564770000","Kanpur Cantt, Kanpur","North Indian, Mughlai","400","2","Rs.","4.0","Very Good","5BA829","119","0","1","0","0"
"161","2300146","Haveli Restaurant","https://www.zomato.com/kanpur/haveli-restaurant-lajpat-nagar?utm_source=api_basic_user&utm_medium=api&utm_campaign=v2.1","Near Hariharnath Post Office, Lajpat Nagar, Kanpur","Lajpat Nagar","Kanpur","23","26.4663375533","80.3053761274","Lajpat Nagar, Kanpur","North Indian","400","2","Rs.","4.1","Very Good","5BA829","406","0","1","0","0"
"162","2302077","Dominic Pizza","https://www.zomato.com/kanpur/dominic-pizza-ashok-nagar?utm_source=api_basic_user&utm_medium=api&utm_campaign=v2.1","106/382, P Road, Gandhi Nagar, Ashok Nagar, Kanpur","Ashok Nagar","Kanpur","23","26.4620500000","80.3248260000","Ashok Nagar, Kanpur","Fast Food, Pizza","200","1","Rs.","3.7","Good","9ACD32","80","0","1","0","0"
"163","2300032","Domino's Pizza","https://www.zomato.com/kanpur/dominos-pizza-mall-road?utm_source=api_basic_user&utm_medium=api&utm_campaign=v2.1","3rd Floor, Food Court, Z Square Mall, Mall Road, Kanpur","Z Square Mall, Mall Road","Kanpur","23","26.4733722721","80.3528133407","Z Square Mall, Mall Road, Kanpur","Pizza, Fast Food","700","2","Rs.","2.7","Average","FFBA00","588","0","0","0","0"
"164","2300029","Tunday Kababi","https://www.zomato.com/kanpur/tunday-kababi-mall-road?utm_source=api_basic_user&utm_medium=api&utm_campaign=v2.1","Mall Road Parade Chauraha, Navin Market, Beside Landmark, Civil Lines, Kanpur, Uttar Pradesh 208001","Z Square Mall, Mall Road","Kanpur","23","26.4742014000","80.3433990000","Z Square Mall, Mall Road, Kanpur","Lucknowi","400","2","Rs.","4.2","Very Good","5BA829","231","0","1","0","0"
"165","2300729","Juicebox","https://www.zomato.com/kanpur/juicebox-saket-nagar?utm_source=api_basic_user&utm_medium=api&utm_campaign=v2.1","Door 127/1099, W1 Block, Saket Nagar, Kanpur","Saket Nagar","Kanpur","23","26.4361063900","80.3153653443","Saket Nagar, Kanpur","Beverages, Fast Food","200","1","Rs.","4.3","Very Good","5BA829","307","0","1","0","0"
"166","18695107","Tripund Food Cafe","https://www.zomato.com/kanpur/tripund-food-cafe-kidwai-nagar?utm_source=api_basic_user&utm_medium=api&utm_campaign=v2.1","128/76, K Block, Near Mikky House, Kidwai Nagar, Kanpur","Kidwai Nagar","Kanpur","23","26.4241240000","80.3231990000","Kidwai Nagar, Kanpur","Cafe, Chinese, Fast Food, North Indian","500","2","Rs.","4.5","Excellent","3F7E00","502","0","1","1","1"
"167","2300483","The Zaffran - Banquet & Restaurant","https://www.zomato.com/kanpur/the-zaffran-banquet-restaurant-ashok-nagar?utm_source=api_basic_user&utm_medium=api&utm_campaign=v2.1","Ratan Zone, Coca-Cola Crossing, Kaushalpuri, Kanpur, Ashok Nagar, Kanpur","Ashok Nagar","Kanpur","23","26.4680330000","80.3123440000","Ashok Nagar, Kanpur","North Indian, Continental, Asian","900","3","Rs.","4.0","Very Good","5BA829","197","0","1","0","0"
"168","2300344","Thaggu Ke Laddu","https://www.zomato.com/kanpur/thaggu-ke-laddu-mall-road?utm_source=api_basic_user&utm_medium=api&utm_campaign=v2.1","Next to Landmark Towers, Mall Road, Kanpur","Mall Road","Kanpur","23","26.4735478420","80.3499235958","Mall Road, Kanpur","Desserts","450","2","Rs.","4.3","Very Good","5BA829","117","0","0","0","0"
"169","2300168","Model Bakery","https://www.zomato.com/kanpur/model-bakery-swaroop-nagar?utm_source=api_basic_user&utm_medium=api&utm_campaign=v2.1","7/117, Swaroop Nagar, Kanpur","Swaroop Nagar","Kanpur","23","26.4838558730","80.3200404346","Swaroop Nagar, Kanpur","Fast Food, Bakery","150","1","Rs.","4.2","Very Good","5BA829","147","0","0","0","0"
"170","2300371","The Chat","https://www.zomato.com/kanpur/the-chat-swaroop-nagar?utm_source=api_basic_user&utm_medium=api&utm_campaign=v2.1","Block 7, Main Road, Opposite Plaza Ice Cream, Swaroop Nagar, Kanpur","Swaroop Nagar","Kanpur","23","26.4825522649","80.3172335029","Swaroop Nagar, Kanpur","South Indian, Street Food","200","1","Rs.","4.1","Very Good","5BA829","198","0","0","0","0"
"171","18811222","Chauuan Pandit Paties","https://www.zomato.com/kanpur/chauuan-pandit-paties-barra?utm_source=api_basic_user&utm_medium=api&utm_campaign=v2.1","19 - A, Sabzi Mandi Main Road, Barra 2, Barra, Kanpur","Barra","Kanpur","23","26.4393000000","80.3010310000","Barra, Kanpur","Fast Food","100","1","Rs.","4.5","Excellent","3F7E00","348","0","1","0","0"
"172","2300946","Pizza Yum","https://www.zomato.com/kanpur/pizza-yum-swaroop-nagar?utm_source=api_basic_user&utm_medium=api&utm_campaign=v2.1","Shop No 17, Lower Ground Floor, Radiance Town, Arya Nagar, Swaroop Nagar, Kanpur","Swaroop Nagar","Kanpur","23","26.4837090000","80.3197440000","Swaroop Nagar, Kanpur","Pizza, Fast Food","600","2","Rs.","3.9","Good","9ACD32","391","0","1","0","0"
"173","18521151","THE Treehouse Cafe","https://www.zomato.com/kanpur/the-treehouse-cafe-swaroop-nagar?utm_source=api_basic_user&utm_medium=api&utm_campaign=v2.1","7/191, Swaroop Nagar, Kanpur","Swaroop Nagar","Kanpur","23","26.4830351178","80.3127340972","Swaroop Nagar, Kanpur","Asian, Bakery, Biryani, Burger, Chinese, Afghan","700","2","Rs.","4.1","Very Good","5BA829","262","0","1","0","0"
"174","2300051","Domino's Pizza","https://www.zomato.com/kanpur/dominos-pizza-kakadeo?utm_source=api_basic_user&utm_medium=api&utm_campaign=v2.1","Food Court, Rave Moti, 117/K/13, Gutaiya, Kakadeo, Kanpur","Rave Moti, Kakadeo","Kanpur","23","26.4815200000","80.2977300000","Rave Moti, Kakadeo, Kanpur","Pizza, Fast Food","700","2","Rs.","3.8","Good","9ACD32","1060","0","0","0","0"
"175","2301173","Belgiyum Waffles & More","https://www.zomato.com/kanpur/belgiyum-waffles-more-swaroop-nagar?utm_source=api_basic_user&utm_medium=api&utm_campaign=v2.1","7/116, Raadhe apartments, Gate No. - 2,  Swaroop Nagar, Kanpur","Swaroop Nagar","Kanpur","23","26.4847720511","80.3196954355","Swaroop Nagar, Kanpur","Desserts, Fast Food","300","1","Rs.","4.3","Very Good","5BA829","154","0","1","0","0"
"176","2300342","Kalyan-G-Bakery","https://www.zomato.com/kanpur/kalyan-g-bakery-mall-road?utm_source=api_basic_user&utm_medium=api&utm_campaign=v2.1","Naveen Market, Mall Road, Kanpur","Naveen Market, Mall Road","Kanpur","23","26.4743284492","80.3470566496","Naveen Market, Mall Road, Kanpur","Bakery, Desserts","200","1","Rs.","3.6","Good","9ACD32","104","0","1","0","0"
"177","2301176","Arabecue Fried Chicken","https://www.zomato.com/kanpur/arabecue-fried-chicken-parade?utm_source=api_basic_user&utm_medium=api&utm_campaign=v2.1","40/69 Hospital Road Parade, Kanpur","Parade","Kanpur","23","26.4724750000","80.3478760000","Parade, Kanpur","Fast Food, Indian, Mughlai","500","2","Rs.","3.9","Good","9ACD32","168","0","1","0","0"
"178","2301414","Baba Biryani","https://www.zomato.com/kanpur/baba-biryani-parade?utm_source=api_basic_user&utm_medium=api&utm_campaign=v2.1","79-80, Naveen Market, Parade, Kanpur","Parade","Kanpur","23","26.4743710000","80.3465330000","Parade, Kanpur","Biryani, Chinese, North Indian, Mughlai","500","2","Rs.","3.7","Good","9ACD32","141","0","1","0","0"
"179","2300655","Social Adda","https://www.zomato.com/kanpur/social-adda-1-shastri-nagar?utm_source=api_basic_user&utm_medium=api&utm_campaign=v2.1","122/1 Sarojini Nagar, Shastri Nagar, Kanpur","Shastri Nagar","Kanpur","23","26.4663489586","80.3076120839","Shastri Nagar, Kanpur","Continental","400","2","Rs.","4.0","Very Good","5BA829","152","0","1","0","0"
"180","2300048","Tadka","https://www.zomato.com/kanpur/tadka-gutaiya?utm_source=api_basic_user&utm_medium=api&utm_campaign=v2.1","117/K/13, Rave Moti, Gutaiya, Kanpur","Rave Moti, Kakadeo","Kanpur","23","26.4809986591","80.2998658642","Rave Moti, Kakadeo, Kanpur","North Indian","1800","4","Rs.","4.1","Very Good","5BA829","208","0","0","0","0"
"181","2300497","Atmosphere Grill Cafe Sheesha","https://www.zomato.com/kanpur/atmosphere-grill-cafe-sheesha-mall-road?utm_source=api_basic_user&utm_medium=api&utm_campaign=v2.1","8th Floor, J.S. Tower, 16/106 - Mall Road, Kanpur, Mall Road, Kanpur","Mall Road","Kanpur","23","26.4719692043","80.3544213250","Mall Road, Kanpur","Indian, Chinese, Continental","1000","3","Rs.","4.0","Very Good","5BA829","183","0","1","0","0"
"182","2301296","Lunch Box","https://www.zomato.com/kanpur/lunch-box-fazalganj?utm_source=api_basic_user&utm_medium=api&utm_campaign=v2.1","119/486, Darshanpurwa, Opposite JK Jute Mill, Near Fazalganj, Kanpur","Fazalganj","Kanpur","23","26.4630951172","80.3204387426","Fazalganj, Kanpur","North Indian, Chinese, Fast Food","400","2","Rs.","3.8","Good","9ACD32","103","0","1","0","0"
"183","2300635","Shree Bhojnalya Restaurant & Sweet","https://www.zomato.com/kanpur/shree-bhojnalya-restaurant-sweet-vijay-nagar?utm_source=api_basic_user&utm_medium=api&utm_campaign=v2.1","SHOPPING COMPLEX , VIJAY NAGAR, KANPUR","Vijay Nagar","Kanpur","23","26.4616568065","80.2935093641","Vijay Nagar, Kanpur","North Indian","400","2","Rs.","3.9","Good","9ACD32","283","0","1","0","0"
"184","2300389","Munna Samosa","https://www.zomato.com/kanpur/munna-samosa-nandlal-chawraha?utm_source=api_basic_user&utm_medium=api&utm_campaign=v2.1","Market Area, Nandlal Chawraha, Kanpur","Nandlal Chawraha","Kanpur","23","26.4474441188","80.3095291927","Nandlal Chawraha, Kanpur","Street Food","100","1","Rs.","3.7","Good","9ACD32","183","0","0","0","0"
"185","2300333","Rakesh Chicken Biryani","https://www.zomato.com/kanpur/rakesh-chicken-biryani-parade?utm_source=api_basic_user&utm_medium=api&utm_campaign=v2.1","Shop 2, Mini Market, Parade Chauraha, Parade, Kanpur","Parade","Kanpur","23","26.4745958533","80.3444790468","Parade, Kanpur","North Indian, Biryani","250","1","Rs.","3.9","Good","9ACD32","216","0","1","0","0"
"186","2301031","Barracks","https://www.zomato.com/kanpur/barracks-swaroop-nagar?utm_source=api_basic_user&utm_medium=api&utm_campaign=v2.1","113/171, First Floor, Above ICICI Bank, Swaroop Nagar, Kanpur\nTerms n Condition Apply for Liquor","Swaroop Nagar","Kanpur","23","26.4825465630","80.3164137527","Swaroop Nagar, Kanpur","Finger Food, North Indian","800","3","Rs.","4.3","Very Good","5BA829","414","0","1","0","0"
"187","2300039","Terrazza 9","https://www.zomato.com/kanpur/terrazza-9-tilak-nagar?utm_source=api_basic_user&utm_medium=api&utm_campaign=v2.1","Rave 3, Plot 11, Block 6 Parwati Bagla Road, Tilak Nagar, Kanpur","Rave 3, Tilak Nagar","Kanpur","23","26.4920024893","80.3273588419","Rave 3, Tilak Nagar, Kanpur","Mughlai, Continental, North Indian","1500","4","Rs.","4.2","Very Good","5BA829","281","0","0","0","0"
"188","2300072","Shanti Niketan Sweets","https://www.zomato.com/kanpur/shanti-niketan-sweets-kidwai-nagar-market?utm_source=api_basic_user&utm_medium=api&utm_campaign=v2.1","128/12 C Block, Kidwai Nagar Market, Kanpur","Kidwai Nagar Market","Kanpur","23","26.4329300528","80.3360146657","Kidwai Nagar Market, Kanpur","Desserts","250","1","Rs.","3.7","Good","9ACD32","72","0","1","0","0"
"189","2301285","LIghts Camera Action","https://www.zomato.com/kanpur/lights-camera-action-ashok-nagar?utm_source=api_basic_user&utm_medium=api&utm_campaign=v2.1","111A/7, G.T. Road, Ashok Nagar, Kanpur","Ashok Nagar","Kanpur","23","26.4699343000","80.3159881000","Ashok Nagar, Kanpur","North Indian, Chinese","600","2","Rs.","2.7","Average","FFBA00","63","0","1","0","0"
"190","18477141","Yllo Food Cafe- G2C","https://www.zomato.com/kanpur/yllo-food-cafe-g2c-lajpat-nagar?utm_source=api_basic_user&utm_medium=api&utm_campaign=v2.1","120/192, Lajpat Nagar, Kanpur","Lajpat Nagar","Kanpur","23","26.4659653816","80.3061016649","Lajpat Nagar, Kanpur","North Indian, Chinese, Continental","800","3","Rs.","3.7","Good","9ACD32","102","0","1","0","0"
"191","18696914","Hot Pizza Yum","https://www.zomato.com/kanpur/hot-pizza-yum-nandlal-chawraha?utm_source=api_basic_user&utm_medium=api&utm_campaign=v2.1","Shop 1, 56/4 Block 6. Near Khoya Mandi, Govind Nagar, Nandlal Chawraha, Kanpur","Nandlal Chawraha","Kanpur","23","26.4476794653","80.3047491610","Nandlal Chawraha, Kanpur","Pizza, Continental","400","2","Rs.","4.0","Very Good","5BA829","290","0","1","0","0"
"192","2300604","Nikke Nikke Shots","https://www.zomato.com/kanpur/nikke-nikke-shots-mall-road?utm_source=api_basic_user&utm_medium=api&utm_campaign=v2.1","16/72 A, Civil Lines, Kanpur, Mall Road, Kanpur","Mall Road","Kanpur","23","26.4738533629","80.3556460887","Mall Road, Kanpur","Finger Food, North Indian","3000","4","Rs.","3.6","Good","9ACD32","212","0","0","0","0"
"193","2300050","Baba Biryani","https://www.zomato.com/kanpur/baba-biryani-kakadeo?utm_source=api_basic_user&utm_medium=api&utm_campaign=v2.1","Food Court, Rave Moti, 117/K/13, Gutaiya, Kakadeo, Kanpur","Rave Moti, Kakadeo","Kanpur","23","26.4834861588","80.2995463461","Rave Moti, Kakadeo, Kanpur","Mughlai, Hyderabadi","500","2","Rs.","4.1","Very Good","5BA829","375","0","1","0","0"
"194","2300954","Hot Pizza Yum","https://www.zomato.com/kanpur/hot-pizza-yum-lajpat-nagar?utm_source=api_basic_user&utm_medium=api&utm_campaign=v2.1","120/192/3 Lajpat Nagar, Kanpur, Uttar Pradesh","Lajpat Nagar","Kanpur","23","26.4670212656","80.3083651140","Lajpat Nagar, Kanpur","Pizza, Fast Food","600","2","Rs.","3.9","Good","9ACD32","202","0","1","0","0"
"195","2301499","Gupta Veg Biryani","https://www.zomato.com/kanpur/gupta-veg-biryani-rai-purwa?utm_source=api_basic_user&utm_medium=api&utm_campaign=v2.1","119/542, Prakash Printers, Gumti 5, Darshan Purwa, Kanpur","Rai Purwa","Kanpur","23","26.4657590000","80.3109417000","Rai Purwa, Kanpur","North Indian","150","1","Rs.","3.9","Good","9ACD32","98","0","1","0","0"
"196","2300182","Chinese Cafe","https://www.zomato.com/kanpur/chinese-cafe-swaroop-nagar?utm_source=api_basic_user&utm_medium=api&utm_campaign=v2.1","112/357, Swaroop Nagar, Kanpur","Swaroop Nagar","Kanpur","23","26.4828259518","80.3185243160","Swaroop Nagar, Kanpur","North Indian, Chinese, Biryani, Momos","300","1","Rs.","3.9","Good","9ACD32","165","0","1","0","0"
"197","2300171","Budhsen Sweet House","https://www.zomato.com/kanpur/budhsen-sweet-house-birhana-road?utm_source=api_basic_user&utm_medium=api&utm_campaign=v2.1","26/45, Birhana Road, Kanpur","Birhana Road","Kanpur","23","26.4642104559","80.3570931405","Birhana Road, Kanpur","Desserts, Street Food","150","1","Rs.","4.3","Very Good","5BA829","100","0","1","0","0"
"198","2300187","Waterside - The Landmark Hotel","https://www.zomato.com/kanpur/waterside-the-landmark-hotel-mall-road?utm_source=api_basic_user&utm_medium=api&utm_campaign=v2.1","The Landmark Hotel, Landmark Towers, 10, Near Naveen Market, Mall Road, Kanpur","The Landmark Hotel, Mall Road","Kanpur","23","26.4738755716","80.3481566906","The Landmark Hotel, Mall Road, Kanpur","North Indian, Chinese","3000","4","Rs.","4.1","Very Good","5BA829","245","0","1","0","0"
"199","2300470","Meezzaah","https://www.zomato.com/kanpur/meezzaah-ashok-nagar?utm_source=api_basic_user&utm_medium=api&utm_campaign=v2.1","111/69, Moti Jheel Crossing, Ashok Nagar, Kanpur","Ashok Nagar","Kanpur","23","26.4728770000","80.3147030000","Ashok Nagar, Kanpur","Pizza, Chinese, Italian","600","2","Rs.","2.7","Average","FFBA00","197","0","1","0","0"
"200","2301603","R S Bhojnalay","https://www.zomato.com/kanpur/r-s-bhojnalay-kakadeo?utm_source=api_basic_user&utm_medium=api&utm_campaign=v2.1","117/933 Avon Market, Kakadeo, Kanpur","Kakadeo","Kanpur","23","26.4758430000","80.2939610000","Kakadeo, Kanpur","Indian","300","1","Rs.","4.1","Very Good","5BA829","244","0","1","0","0"
"201","3900032","Kashi Chat Bhandar","https://www.zomato.com/varanasi/kashi-chat-bhandar-godaulia?utm_source=api_basic_user&utm_medium=api&utm_campaign=v2.1","D-37/49, Godaulia, Varanasi","Godaulia","Varanasi","39","25.3093913007","83.0059475452","Godaulia, Varanasi","Street Food","150","1","Rs.","4.7","Excellent","3F7E00","716","0","1","0","0"
"202","18803653","KFC","https://www.zomato.com/varanasi/kfc-sigra?utm_source=api_basic_user&utm_medium=api&utm_campaign=v2.1","Plot D-64/127A, Sigra, Varanasi","Sigra","Varanasi","39","25.3119370000","82.9885051000","Sigra, Varanasi","Burger, Fast Food","500","3","Rs.","4.5","Excellent","3F7E00","383","0","1","0","0"
"203","3900488","Capsicum","https://www.zomato.com/varanasi/capsicum-2-lanka?utm_source=api_basic_user&utm_medium=api&utm_campaign=v2.1","Pandit Madan Mohan Malviya Road, Saket Nagar Colony, Lanka, Varanasi","Lanka","Varanasi","39","25.2806179187","83.0029877275","Lanka, Varanasi","South Indian, Fast Food, Italian, Pizza, Chinese, Rolls, Indian","600","3","Rs.","4.1","Very Good","5BA829","1091","0","1","0","0"
"204","3900267","Roma's Café Diner","https://www.zomato.com/RomasCafeDiner?utm_source=api_basic_user&utm_medium=api&utm_campaign=v2.1","2nd Floor, Swastik Plaza, Lanka, Varanasi","Lanka","Varanasi","39","25.2812550000","83.0032850000","Lanka, Varanasi","Continental, Cafe, North Indian, Italian, Asian, Mediterranean, Mexican","800","3","Rs.","4.9","Excellent","3F7E00","857","0","1","0","0"
"205","3900057","Ming Garden","https://www.zomato.com/varanasi/ming-garden-lanka?utm_source=api_basic_user&utm_medium=api&utm_campaign=v2.1","34-B, Ravindra Puri, Near Lanka,Varanasi","Lanka","Varanasi","39","25.2901663544","83.0017545819","Lanka, Varanasi","Beverages, Desserts, Pizza, Chinese","600","3","Rs.","4.3","Very Good","5BA829","699","0","1","0","0"
"206","3900245","Deena Chat Bhandar","https://www.zomato.com/varanasi/deena-chat-bhandar-godaulia?utm_source=api_basic_user&utm_medium=api&utm_campaign=v2.1","D-47/184, Luxa Road, Godowlia, Varanasi, Godaulia, Varanasi","Godaulia","Varanasi","39","25.3091391264","83.0023761839","Godaulia, Varanasi","Street Food","150","1","Rs.","4.6","Excellent","3F7E00","418","0","1","0","0"
"207","3900238","Singh's Delight Restaurant","https://www.zomato.com/varanasi/singhs-delight-restaurant-sunderpur?utm_source=api_basic_user&utm_medium=api&utm_campaign=v2.1","1st Floor , Near Life Line Hospital, Brij Enclave Colony,\nSunderpur varanasi, Sunderpur, Varanasi","Sunderpur","Varanasi","39","25.2832760469","82.9812105373","Sunderpur, Varanasi","North Indian, Chinese, Mughlai","700","3","Rs.","4.0","Very Good","5BA829","255","0","1","0","0"
"208","18610032","Crood Square","https://www.zomato.com/varanasi/crood-square-lanka?utm_source=api_basic_user&utm_medium=api&utm_campaign=v2.1","B-30/2-A-26, prafull nagar colony, Lanka, Varanasi","Lanka","Varanasi","39","25.2821652668","83.0034507439","Lanka, Varanasi","North Indian, Continental, Italian, Chinese, Desserts","400","2","Rs.","4.3","Very Good","5BA829","228","0","1","0","0"
"209","3900059","Pizzeria Vaatika Cafe","https://www.zomato.com/varanasi/pizzeria-vaatika-cafe-assi-ghat?utm_source=api_basic_user&utm_medium=api&utm_campaign=v2.1","B 1/178 Assi Varanasi","Assi Ghat","Varanasi","39","25.2894327489","83.0061403289","Assi Ghat, Varanasi","Italian, Pizza, North Indian","700","3","Rs.","4.3","Very Good","5BA829","437","0","1","0","0"
"210","18652184","Doodh Booth","https://www.zomato.com/varanasi/doodh-booth-lanka?utm_source=api_basic_user&utm_medium=api&utm_campaign=v2.1","B 31/34, Sankat Mochan Road, Opp. Lanka Post Office, Saket Nagar Colony, Lanka, Varanasi","Lanka","Varanasi","39","25.2835822372","83.0017860979","Lanka, Varanasi","Burger, Beverages, Fast Food, Cafe, Italian","500","3","Rs.","4.0","Very Good","5BA829","403","0","1","0","0"
"211","3900455","The Tripling Bistro","https://www.zomato.com/varanasi/the-tripling-bistro-3-assi-ghat?utm_source=api_basic_user&utm_medium=api&utm_campaign=v2.1","Dumraon Colony, Assi Ghat, Varanasi","Assi Ghat","Varanasi","39","25.2880622284","83.0057403445","Assi Ghat, Varanasi","Continental, Mexican, Burger, Fast Food, Italian, Pizza, Chinese, Middle Eastern","500","3","Rs.","4.1","Very Good","5BA829","301","0","1","0","0"
"212","3900475","Wife On Leave Restaurant","https://www.zomato.com/varanasi/wife-on-leave-restaurant-sigra?utm_source=api_basic_user&utm_medium=api&utm_campaign=v2.1","Near Fatman Road, Sigra, Varanasi","Sigra","Varanasi","39","25.3211183417","82.9912470281","Sigra, Varanasi","Continental, North Indian, Chinese","700","3","Rs.","4.2","Very Good","5BA829","345","0","1","0","0"
"213","3900045","Domino's Pizza","https://www.zomato.com/varanasi/dominos-pizza-chetganj?utm_source=api_basic_user&utm_medium=api&utm_campaign=v2.1","14, Ground Floor, Cinema Site, IP Mallvaranasi, Shastri Nagar, Sigra, Chetganj, Varanasi","IP Mall, Sigra","Varanasi","39","25.3161400000","82.9855700000","IP Mall, Sigra, Varanasi","Pizza, Fast Food","700","3","Rs.","3.8","Good","9ACD32","671","0","0","0","0"
"214","18676368","Barbeque Nation","https://www.zomato.com/varanasi/barbeque-nation-1-nadesar?utm_source=api_basic_user&utm_medium=api&utm_campaign=v2.1","3rd Floor, JHV Mall, The Mall Road, Varanasi Cantt, Nadesar, Varanasi","JHV Mall, Nadesar","Varanasi","39","25.3356333502","82.9775972664","JHV Mall, Nadesar, Varanasi","North Indian, Chinese, BBQ","1500","4","Rs.","4.8","Excellent","3F7E00","358","0","0","1","0"
"215","18689916","The Yellow Chilli","https://www.zomato.com/varanasi/the-yellow-chilli-mahmoorganj?utm_source=api_basic_user&utm_medium=api&utm_campaign=v2.1","1st Floor, Zorba Tower, Mahmoorganj, Varanasi","Mahmoorganj","Varanasi","39","25.3060177452","82.9811522434","Mahmoorganj, Varanasi","North Indian, Mughlai","900","3","Rs.","4.2","Very Good","5BA829","100","0","1","1","1"
"216","18246202","VNS Live Studio","https://www.zomato.com/varanasi/vns-live-studio-sigra?utm_source=api_basic_user&utm_medium=api&utm_campaign=v2.1","Hotel Varuna Ground Floor, 22 Gulab Bagh, Sigra, Varanasi","Sigra","Varanasi","39","25.3185134747","82.9916671291","Sigra, Varanasi","Chinese, North Indian","700","3","Rs.","4.1","Very Good","5BA829","286","0","1","0","0"
"217","18793195","The Taste Factory","https://www.zomato.com/varanasi/the-taste-factory-2-mahmoorganj?utm_source=api_basic_user&utm_medium=api&utm_campaign=v2.1","38/1, Tulsipur, Mahmoorganj, Varanasi","Mahmoorganj","Varanasi","39","25.3059180000","82.9859910000","Mahmoorganj, Varanasi","North Indian, Chinese, Mughlai","850","3","Rs.","4.3","Very Good","5BA829","98","0","1","0","0"
"218","3900158","Aman E Khas","https://www.zomato.com/varanasi/aman-e-khas-bhelupur?utm_source=api_basic_user&utm_medium=api&utm_campaign=v2.1","Boradway Hotel, Near IP Vijay Mall, Bhelupur, Varanasi","Bhelupur","Varanasi","39","25.2968947050","83.0024791136","Bhelupur, Varanasi","Chinese, North Indian, Mughlai","650","3","Rs.","3.9","Good","9ACD32","267","0","1","0","0"
"219","3900259","Singh's Delight Restaurant","https://www.zomato.com/varanasi/singhs-delight-restaurant-lanka?utm_source=api_basic_user&utm_medium=api&utm_campaign=v2.1","Shop 15, First Floor, Shiva Complex, Near Hyderabad Gate, Susuwahi, Lanka, Varanasi","Lanka","Varanasi","39","25.2621188506","82.9816735536","Lanka, Varanasi","North Indian, Chinese, Mughlai","700","3","Rs.","4.1","Very Good","5BA829","364","0","1","0","0"
"220","3900058","Chrystal Bowl Restaurant","https://www.zomato.com/varanasi/chrystal-bowl-restaurant-lanka?utm_source=api_basic_user&utm_medium=api&utm_campaign=v2.1","34-B, Ravindra Puri, Near Lanka, Varanasi","Lanka","Varanasi","39","25.2903709750","83.0017411709","Lanka, Varanasi","North Indian, Italian","1100","4","Rs.","4.0","Very Good","5BA829","274","0","1","0","0"
"221","3900422","Chicago Pizza","https://www.zomato.com/varanasi/chicago-pizza-3-lanka?utm_source=api_basic_user&utm_medium=api&utm_campaign=v2.1","Behind V2 Mega Store, Opposite Kamdhenu Appartments, Lanka Varanasi ","Lanka","Varanasi","39","25.2797720833","83.0023225397","Lanka, Varanasi","Pizza, Fast Food, Continental, Italian","400","2","Rs.","3.6","Good","9ACD32","232","0","1","0","0"
"222","3900138","McDonald's","https://www.zomato.com/varanasi/mcdonalds-sigra?utm_source=api_basic_user&utm_medium=api&utm_campaign=v2.1","IP Mall, Sigra, Varanasi","Sigra","Varanasi","39","25.3164947020","82.9903954268","Sigra, Varanasi","Burger, Fast Food","500","3","Rs.","4.1","Very Good","5BA829","368","0","0","0","0"
"223","3900223","Sha Chicken Hut","https://www.zomato.com/varanasi/sha-chicken-hut-dashaswmedh-road?utm_source=api_basic_user&utm_medium=api&utm_campaign=v2.1","Nai Sarak, Near Telephone Exchange","Dashaswmedh Road","Varanasi","39","25.3133310000","83.0046380000","Dashaswmedh Road, Varanasi","Lucknowi, Mughlai","150","1","Rs.","4.4","Very Good","5BA829","719","0","1","0","0"
"224","3900043","Domino's Pizza","https://www.zomato.com/varanasi/dominos-pizza-bhelupur?utm_source=api_basic_user&utm_medium=api&utm_campaign=v2.1","9, Ground Floor, IP Vijaya Mall, Bhelupur, Varanasi","Bhelupur","Varanasi","39","25.2915700000","82.9990000000","Bhelupur, Varanasi","Pizza, Fast Food","700","3","Rs.","3.9","Good","9ACD32","418","0","0","0","0"
"225","18787886","Bistro B2","https://www.zomato.com/varanasi/bistro-b2-chetganj?utm_source=api_basic_user&utm_medium=api&utm_campaign=v2.1","C7/285, Shanti Tower, Ramakanth Nagar, Chetganj, Varanasi","Chetganj","Varanasi","39","25.3197358000","83.0010277000","Chetganj, Varanasi","Continental, North Indian, Chinese, Mughlai","500","3","Rs.","4.1","Very Good","5BA829","130","0","1","0","0"
"226","18795894","Ming Garden Bakery","https://www.zomato.com/varanasi/ming-garden-bakery-lanka?utm_source=api_basic_user&utm_medium=api&utm_campaign=v2.1","34-B, Ravindra Puri, Lanka, Varanasi","Lanka","Varanasi","39","25.2901354340","83.0017307773","Lanka, Varanasi","Cafe, Bakery, Italian","400","2","Rs.","4.1","Very Good","5BA829","118","0","1","0","0"
"227","18921597","London Live Restaurant","https://www.zomato.com/varanasi/london-live-restaurant-chetganj?utm_source=api_basic_user&utm_medium=api&utm_campaign=v2.1","23, Vivekanand colony, Maldhaiya, Chetganj, Varanasi","Chetganj","Varanasi","39","25.3258630000","82.9959010000","Chetganj, Varanasi","Mughlai, Chinese","800","3","Rs.","4.3","Very Good","5BA829","85","0","1","0","0"
"228","18646584","Villa 26","https://www.zomato.com/varanasi/villa-26-lanka?utm_source=api_basic_user&utm_medium=api&utm_campaign=v2.1","Hotel Premiere Villa, B-36/4-M-26, Ramapuri Colony, Sankat Mochan, Lanka, Varanasi","Lanka","Varanasi","39","25.2833112133","82.9993523285","Lanka, Varanasi","Continental, Asian, Italian, North Indian, Mughlai","1500","4","Rs.","3.9","Good","9ACD32","117","0","1","0","0"
"229","18785624","The Belgian Waffle Co","https://www.zomato.com/varanasi/the-belgian-waffle-co-3-bhelupur?utm_source=api_basic_user&utm_medium=api&utm_campaign=v2.1","Beside Kerala Cafe, Bhelupura Chauraha\nVaranasi ","Bhelupur","Varanasi","39","25.2996620000","83.0011150000","Bhelupur, Varanasi","Desserts","300","2","Rs.","4.1","Very Good","5BA829","123","0","1","0","0"
"230","18712646","Tanish Dining and Cafe","https://www.zomato.com/varanasi/tanish-dining-and-cafe-lanka?utm_source=api_basic_user&utm_medium=api&utm_campaign=v2.1","N 1/64 A, Near BHU Trauma Center Main Gate, Ravidas Gat Road, Lanka, Varanasi","Lanka","Varanasi","39","25.2776899086","83.0056333914","Lanka, Varanasi","Biryani, Desserts, North Indian, Chinese","700","3","Rs.","4.4","Very Good","5BA829","70","0","1","0","0"
"231","3900266","Holy Chopsticks","https://www.zomato.com/varanasi/holy-chopsticks-nadesar?utm_source=api_basic_user&utm_medium=api&utm_campaign=v2.1","S-17/317 Nadesar Main Road, Near Badi Masjid, Nadesar, Varanasi","Nadesar","Varanasi","39","25.3328600050","82.9892621934","Nadesar, Varanasi","Chinese, Thai, Momos","600","3","Rs.","4.5","Excellent","3F7E00","430","0","1","0","0"
"232","3900067","Taste King","https://www.zomato.com/varanasi/taste-king-nadesar?utm_source=api_basic_user&utm_medium=api&utm_campaign=v2.1","S 19/1 K, Mint House, Near Hotel Taj, Nai Bazar Cantt, Nadesar, Varanasi","Nadesar","Varanasi","39","25.3358451667","82.9852509499","Nadesar, Varanasi","North Indian, Fast Food","350","2","Rs.","4.2","Very Good","5BA829","553","0","1","0","0"
"233","3900135","Maharaja Restaurant","https://www.zomato.com/varanasi/maharaja-restaurant-chetganj?utm_source=api_basic_user&utm_medium=api&utm_campaign=v2.1","C27/231 Jagatganj, Near Chetganj, Varanasi","Chetganj","Varanasi","39","25.3258312055","82.9984970391","Chetganj, Varanasi","Chinese, Rolls","300","2","Rs.","3.9","Good","9ACD32","281","0","1","0","0"
"234","18709780","Cafebility","https://www.zomato.com/varanasi/cafebility-4-sigra?utm_source=api_basic_user&utm_medium=api&utm_campaign=v2.1","2nd Floor, IP Mall, Sigra, Varanasi","Sigra","Varanasi","39","25.3166247216","82.9899602383","Sigra, Varanasi","Cafe, Pizza, Beverages","800","3","Rs.","4.1","Very Good","5BA829","108","0","1","0","0"
"235","3900229","Bikanervala","https://www.zomato.com/varanasi/bikanervala-bhelupur?utm_source=api_basic_user&utm_medium=api&utm_campaign=v2.1","Shop 101, IP Vijaya Mall, Bhelupur, Varanasi","Bhelupur","Varanasi","39","25.2975082286","83.0014357343","Bhelupur, Varanasi","North Indian, South Indian, Street Food, Chinese, Mithai","500","3","Rs.","4.0","Very Good","5BA829","133","0","1","0","0"
"236","18640504","The Chocolate Heaven","https://www.zomato.com/varanasi/the-chocolate-heaven-1-bhelupur?utm_source=api_basic_user&utm_medium=api&utm_campaign=v2.1","B-27/92, C-1-B, Plot 65 A, First Floor, Ravindrapuri Colony, Bhelupur, Varanasi","Bhelupur","Varanasi","39","25.2935627085","83.0022638664","Bhelupur, Varanasi","Cafe, Fast Food, Desserts","700","3","Rs.","4.3","Very Good","5BA829","144","0","1","0","0"
"237","18620085","Kalika Family Restaurant","https://www.zomato.com/varanasi/kalika-family-restaurant-1-lanka?utm_source=api_basic_user&utm_medium=api&utm_campaign=v2.1","Near Chhoti Hyderabad Gate, B H U Road, Susuwahi, Varanasi, Lanka, Varanasi","Lanka","Varanasi","39","25.2593468552","82.9816802591","Lanka, Varanasi","North Indian, Biryani, Chinese","800","3","Rs.","3.9","Good","9ACD32","172","0","1","0","0"
"238","18710192","The Barbeque Kitchen","https://www.zomato.com/varanasi/the-barbeque-kitchen-mahmoorganj?utm_source=api_basic_user&utm_medium=api&utm_campaign=v2.1","Shanker Apartment, Near Mahmoorganj Crossing, Mahmoorganj, Varanasi","Mahmoorganj","Varanasi","39","25.3063072820","82.9816292971","Mahmoorganj, Varanasi","North Indian, Continental","800","3","Rs.","3.9","Good","9ACD32","142","0","1","0","0"
"239","3900021","Open Hand Shop & Cafe","https://www.zomato.com/varanasi/open-hand-shop-cafe-assi-ghat?utm_source=api_basic_user&utm_medium=api&utm_campaign=v2.1","B1/128-3, Dumraun Bagh Colony, Assi Ghat, Varanasi","Assi Ghat","Varanasi","39","25.2879591583","83.0044683069","Assi Ghat, Varanasi","Cafe","450","2","Rs.","4.2","Very Good","5BA829","122","0","0","0","0"
"240","18646203","Downtown Pizza","https://www.zomato.com/varanasi/downtown-pizza-2-assi-ghat?utm_source=api_basic_user&utm_medium=api&utm_campaign=v2.1","B 1/107, Assi, Varanasi, Assi Ghat, Varanasi","Assi Ghat","Varanasi","39","25.2891468840","83.0060598627","Assi Ghat, Varanasi","Beverages, Italian, Pizza","800","3","Rs.","3.6","Good","9ACD32","125","0","1","0","0"
"241","3900055","I:ba Cafe & Restaurant","https://www.zomato.com/varanasi/i-ba-cafe-restaurant-shivala?utm_source=api_basic_user&utm_medium=api&utm_campaign=v2.1","B 3/335, Krimkund, Shivala, Varanasi","Shivala","Varanasi","39","25.2965367138","83.0035969242","Shivala, Varanasi","Japanese, American, North Indian, Fast Food","1000","4","Rs.","4.0","Very Good","5BA829","149","0","1","0","0"
"242","18680632","The 3rd Floor Bar Stock Exchange","https://www.zomato.com/the3rdfloorbse?utm_source=api_basic_user&utm_medium=api&utm_campaign=v2.1","Hotel Varuna, 22, Gulab Bagh, Sigra, Opposite Sigra Police Station, Varanasi","Sigra","Varanasi","39","25.3182488934","82.9917341843","Sigra, Varanasi","Chinese, Indian, Italian, Thai, Momos","1400","4","Rs.","4.3","Very Good","5BA829","228","0","1","0","0"
"243","18637790","Angeethee Restaurant","https://www.zomato.com/varanasi/angeethee-restaurant-sunderpur?utm_source=api_basic_user&utm_medium=api&utm_campaign=v2.1","BHU Road, Shree Ganesh Dham Colony, Sundarpur, Nagwa, Varanasi","Sunderpur","Varanasi","39","25.2840048392","82.9699067026","Sunderpur, Varanasi","North Indian, South Indian, Chinese, Fast Food","500","3","Rs.","3.4","Average","CDD614","100","0","0","0","0"
"244","3900367","Partho's Restaurant","https://www.zomato.com/varanasi/parthos-restaurant-mahmoorganj?utm_source=api_basic_user&utm_medium=api&utm_campaign=v2.1","D 63/6B, 1-B-C, Shivaji Nagar Colony, Near Akashwani, Mahmoorganj, Varanasi","Mahmoorganj","Varanasi","39","25.3051360921","82.9791888222","Mahmoorganj, Varanasi","North Indian, Continental, Chinese, South Indian","600","3","Rs.","4.2","Very Good","5BA829","220","0","1","0","0"
"245","18967549","One Bite","https://www.zomato.com/varanasi/one-bite-lanka?utm_source=api_basic_user&utm_medium=api&utm_campaign=v2.1","Prakash Complex, B30/2A- 27A, Lanka, Varanasi","Lanka","Varanasi","39","25.2830247277","83.0035114288","Lanka, Varanasi","Italian, Fast Food","450","2","Rs.","3.9","Good","9ACD32","22","0","1","0","0"
"246","18788415","Cafe 65","https://www.zomato.com/varanasi/cafe-65-durgakund?utm_source=api_basic_user&utm_medium=api&utm_campaign=v2.1","Kabir Nagar, Durgakund, Varanasi","Durgakund","Varanasi","39","25.2884256000","82.9952043000","Durgakund, Varanasi","Biryani, North Indian, Chinese","400","2","Rs.","3.7","Good","9ACD32","140","0","1","0","0"
"247","3900197","Shahi Restaurant","https://www.zomato.com/varanasi/shahi-restaurant-godaulia?utm_source=api_basic_user&utm_medium=api&utm_campaign=v2.1","Dharamshala, Near Kamachha Road, Near , Godaulia, Varanasi","Godaulia","Varanasi","39","25.3070471506","82.9928405955","Godaulia, Varanasi","North Indian, Chinese, South Indian","500","3","Rs.","3.9","Good","9ACD32","166","0","1","0","0"
"248","3900253","Sagar Ratna","https://www.zomato.com/varanasi/sagar-ratna-lanka?utm_source=api_basic_user&utm_medium=api&utm_campaign=v2.1","B-30/69-70, Swastik Plaza, Beside Ravidas Gate, Lanka, Varanasi","Lanka","Varanasi","39","25.2813042840","83.0030054972","Lanka, Varanasi","South Indian","500","3","Rs.","3.6","Good","9ACD32","194","0","1","0","0"
"249","3900274","The Big Tamaasha Cafe","https://www.zomato.com/varanasi/the-big-tamaasha-cafe-sigra?utm_source=api_basic_user&utm_medium=api&utm_campaign=v2.1","Shop 60, LGF, Kuber Complex, Sigra, Varanasi","Sigra","Varanasi","39","25.3078436939","82.9923239350","Sigra, Varanasi","North Indian, Continental","1000","4","Rs.","4.0","Very Good","5BA829","66","0","0","0","0"
"250","3900050","Tandoor Villa","https://www.zomato.com/varanasi/tandoor-villa-nadesar?utm_source=api_basic_user&utm_medium=api&utm_campaign=v2.1","Near SBI Atm, Main Road, Nadesar, Varanasi","Nadesar","Varanasi","39","25.3330127346","82.9892732576","Nadesar, Varanasi","North Indian, Mughlai","600","3","Rs.","4.2","Very Good","5BA829","421","0","1","0","0"
"251","3900483","Cafebility","https://www.zomato.com/varanasi/cafebility-chetganj?utm_source=api_basic_user&utm_medium=api&utm_campaign=v2.1","Second Floor, Vinayak Plaza, Maldahiya, Varanasi","Vinayak Plaza, Chetganj","Varanasi","39","25.3241631921","82.9922850430","Vinayak Plaza, Chetganj, Varanasi","Cafe, Continental","600","3","Rs.","4.4","Very Good","5BA829","216","0","1","0","0"
"252","3900271","Green Leaf","https://www.zomato.com/varanasi/green-leaf-sunderpur?utm_source=api_basic_user&utm_medium=api&utm_campaign=v2.1","N-8/250, MCL Tower, Newada, Sunderpur, Varanasi","Sunderpur","Varanasi","39","25.2836877362","82.9733439535","Sunderpur, Varanasi","North Indian, South Indian, Chinese","400","2","Rs.","3.8","Good","9ACD32","94","0","1","0","0"
"253","18797690","Pahalwan Lassi","https://www.zomato.com/varanasi/pahalwan-lassi-lanka?utm_source=api_basic_user&utm_medium=api&utm_campaign=v2.1","B 29/14","Lanka","Varanasi","39","25.2820673455","83.0030175671","Lanka, Varanasi","Beverages, Fast Food","100","1","Rs.","4.2","Very Good","5BA829","142","0","1","0","0"
"254","3900070","Flavours Cafe","https://www.zomato.com/varanasi/flavours-cafe-lanka?utm_source=api_basic_user&utm_medium=api&utm_campaign=v2.1","1st Floor, Swastik Plaza, Near Ravidas Gate, BHU Road, Lanka, Varanasi","Lanka","Varanasi","39","25.2813918984","83.0035033822","Lanka, Varanasi","North Indian, Cafe","400","2","Rs.","3.8","Good","9ACD32","190","0","1","0","0"
"255","18709551","B.B.C. Hotel & Restaurant","https://www.zomato.com/varanasi/b-b-c-hotel-restaurant-lanka?utm_source=api_basic_user&utm_medium=api&utm_campaign=v2.1","Near BHU, Lanka, Varanasi","Lanka","Varanasi","39","25.2787488875","83.0024915189","Lanka, Varanasi","Chinese, North Indian, South Indian","300","2","Rs.","3.7","Good","9ACD32","130","0","1","0","0"
"256","18709825","Bhole Chature","https://www.zomato.com/varanasi/bhole-chature-2-sigra?utm_source=api_basic_user&utm_medium=api&utm_campaign=v2.1","Lower Ground Floor, Urvashi Complex, Gandhi Nagar, Sigra, Varanasi","Sigra","Varanasi","39","25.3116599366","82.9889735207","Sigra, Varanasi","Fast Food, North Indian","300","2","Rs.","3.9","Good","9ACD32","149","0","1","0","0"
"257","3900089","Rahil Restaurant","https://www.zomato.com/varanasi/rahil-restaurant-sigra?utm_source=api_basic_user&utm_medium=api&utm_campaign=v2.1","D-53/118-R, Rathyatra Crossing, Rathyatra, Sigra, Varanasi","Sigra","Varanasi","39","25.3070674582","82.9922018945","Sigra, Varanasi","North Indian, South Indian","400","2","Rs.","3.9","Good","9ACD32","173","0","1","0","0"
